{"stations":[{"name":"ARIANA","lat":36.85979,"long":10.19748},{"name":"ETTAHRIR","lat":36.82918,"long":10.12862},{"name":"IBN KHALDOUN","lat":36.83083,"long":10.13411},{"name":"LES JASMINS","lat":36.82588,"long":10.13454},{"name":"14 JANVIER 2014","lat":36.82289,"long":10.13986},{"name":"CAMPUS","lat":36.82605,"long":10.14385},{"name":"ROMANA","lat":36.82365,"long":10.15085},{"name":"MEFTAH SADALLAH","lat":36.8132,"long":10.15626},{"name":"COMPUS MANOUBA","lat":36.81396,"long":10.05981},{"name":"PALAIS OUARDIA","lat":36.8092,"long":10.07461},{"name":"TECHNOPOLE","lat":36.80811,"long":10.08053},{"name":"ETTADHAMOUN","lat":36.83584,"long":10.11759},{"name":"CITE EL INTILAKA","lat":36.83935,"long":10.11695},{"name":"L'INDEPENDANCE","lat":36.85441,"long":10.19591},{"name":"EL FEL","lat":36.84699,"long":10.19237},{"name":"CITE SPORTIVE","lat":36.83852,"long":10.18196},{"name":"CITE DES JEUNES","lat":36.83329,"long":10.18277},{"name":"CITE EL KHADRA","lat":36.82923,"long":10.19037},{"name":"LES JARDINS","lat":36.82346,"long":10.18556},{"name":"PALESTINE","lat":36.82001322691461,"long":10.182062883606022},{"name":"MOHAMED V","lat":36.8156851475049,"long":10.183576238098112},{"name":"NELSON MANDELLA","lat":36.812484334743104,"long":10.183332476196256},{"name":"ERRAZI","lat":36.80739,"long":10.08247},{"name":"MONCEF BEY","lat":36.80528,"long":10.09065},{"name":"SLIMANE KAHIA","lat":36.80334,"long":10.09908},{"name":"BEN AROUS","lat":36.7554,"long":10.21898},{"name":"ABOUL KACEM ECHEBBI","lat":36.75246,"long":10.21474},{"name":"CITE ENNOUR","lat":36.7515,"long":10.20473},{"name":"OUARDIA 6","lat":36.75424,"long":10.19906},{"name":"IBN SINA","lat":36.75428,"long":10.19393},{"name":"KABARIA","lat":36.75978,"long":10.19059},{"name":"MOUHAMED ALI","lat":36.76788,"long":10.18388},{"name":"13 AOUT","lat":36.77504,"long":10.1792},{"name":"MOHAMED MANACHOU","lat":36.7821,"long":10.17984},{"name":"BEB ALIOUA","lat":36.78580673733973,"long":10.179812507934571},{"name":"HABIB THAMER","lat":36.80131,"long":10.17864},{"name":"STATION REPUBLIQUE","lat":36.80649,"long":10.18081},{"name":"DEN DEN","lat":36.80221,"long":10.11075},{"name":"ARTISANAT","lat":36.80293,"long":10.11601},{"name":"KHAZNADAR","lat":36.80421,"long":10.12177},{"name":"SAIDIA","lat":36.80541,"long":10.12664},{"name":"BARDO","lat":36.80724,"long":10.13523},{"name":"20 MARS","lat":36.80835,"long":10.14238},{"name":"BOUCHOUCHA","lat":36.80953,"long":10.15026},{"name":"BA SAADOUN","lat":36.80986,"long":10.16219},{"name":"BAB LASAAL","lat":36.81331,"long":10.16817},{"name":"BEB EL KHADHRA","lat":36.8103,"long":10.17239},{"name":"Barcelone","lat":36.79610888579611,"long":10.180552476196226},{"name":"Tahar Haddad","lat":36.76065046896195,"long":10.187015915344205},{"name":"Ghazeli","lat":36.75466788779831,"long":10.187659645507779},{"name":"Cité municipale","lat":36.748444132966,"long":10.188732529113736},{"name":"Ennesri","lat":36.74517731928656,"long":10.190492058227505},{"name":"El Montazah","lat":36.742907661596334,"long":10.193195724914517},{"name":"El Mourouj 2","lat":36.74218548370951,"long":10.197744751403775},{"name":"El Mourouj 1","lat":36.73854050957815,"long":10.206570364929235},{"name":"Environnement","lat":36.73310650479135,"long":10.210389830566442},{"name":"El Mourouj 3","lat":36.72870399104455,"long":10.210733153320348},{"name":"Martyrs","lat":36.723647667753255,"long":10.212106444335973},{"name":"El Mourouj 4","lat":36.71965740892696,"long":10.216397978759801},{"name":"BAB SADOUN","lat":36.8097562130748,"long":10.153218715859111},{"name":"BARDO-ALLER","lat":36.807772260842626,"long":10.138723119962378},{"name":"JARDIN THAMEUR","lat":36.803733581002334,"long":10.17809218246839},{"name":"BARDO","lat":36.80943838903315,"long":10.132758826148347},{"name":"FATOUMA BOURGUIBA","lat":36.811787392571226,"long":10.132725566691079},{"name":"sidi aloui ","lat":36.80533724896882,"long":10.168840371170518},{"name":"PARC STADE TUNISIEN","lat":36.815277765828,"long":10.127344787906623},{"name":"CITE ETAHRIR AOUINA","lat":36.819095248596206,"long":10.124842688637727},{"name":"IMMEUBLE CHEFIA","lat":36.80982342850052,"long":10.152579010318732},{"name":"CITE KSAR SAID 2","lat":36.81973510952705,"long":10.12453155222829},{"name":"SONED","lat":36.82512035796745,"long":10.121572674106574},{"name":"BOUCHOUCHA-ALLER","lat":36.809050341374004,"long":10.147096574437455},{"name":"NOGRA","lat":36.83451637577686,"long":10.117866128748574},{"name":"20 mars aller","lat":36.808251476475746,"long":10.141421020161943},{"name":"MEUBLATEX ETTHAMEN","lat":36.83804188365253,"long":10.111463829744025},{"name":"CHEBBI ALLER","lat":36.80960130988019,"long":10.131336182748782},{"name":"BOURTAL ALLER","lat":36.811834635319485,"long":10.118091433978407},{"name":"CHAMP DE COURSE KSAR SAID ALLER","lat":36.81302492831971,"long":10.113343121192884},{"name":"INEPS","lat":36.816477166823695,"long":10.101611941790907},{"name":"BOUDREYA","lat":36.818495857184985,"long":10.08790692765615},{"name":"GAALOUL","lat":36.819624995155806,"long":10.085239737964002},{"name":"INOPLAST","lat":36.82170343540569,"long":10.07755789134535},{"name":"CASERNE OUED ELIL 1","lat":36.82355852484673,"long":10.071142048036563},{"name":"CASERNE OUED ELIL 2","lat":36.824181172189114,"long":10.069377154504764},{"name":"MOEZEYA","lat":36.82573132703088,"long":10.064908593631117},{"name":"OUED ELLIL","lat":36.82689928998952,"long":10.06055268651835},{"name":"MOSQUÉE OUED ELLIL","lat":36.832983573356415,"long":10.038081139064161},{"name":"CHOCO TOM","lat":36.83366625385815,"long":10.03428313175391},{"name":"CITE EL BOSTANE","lat":36.83459244265765,"long":10.027405680011725},{"name":"ECOLE PRIMAIRE ","lat":36.836120597283056,"long":10.01589135845279},{"name":"POMPAGE","lat":36.83597615905042,"long":10.000980824625003},{"name":"ZONE F ","lat":36.832348760999814,"long":9.969684006355237},{"name":"Station quartier mabrouka","lat":36.78398844608775,"long":10.191749520599842},{"name":"SAIDA","lat":36.831999114481434,"long":9.965425194095587},{"name":"ERRIADH","lat":36.83399750208659,"long":9.984253764414461},{"name":"LAITERIE ","lat":36.83394841240908,"long":9.945673405600246},{"name":"SIDI TALEB ","lat":36.83339575853905,"long":9.941006631052005},{"name":"CITE ENAJET","lat":36.83164703334829,"long":9.939525783192948},{"name":"CITE ENAJET","lat":36.83164703334829,"long":9.939525783192948},{"name":"SOUASSI","lat":36.829969401708055,"long":9.938962787455239},{"name":"BATTANE","lat":36.80694700377073,"long":9.848926394915907},{"name":"CITE ERRIMEL ","lat":36.820164865258285,"long":9.842826784442877},{"name":"PICINE","lat":36.825061457877574,"long":9.842617839640297},{"name":"AVENUE CARTHAGE","lat":36.79192420957057,"long":10.182264223694801},{"name":"Gare Jebel Jelloud ","lat":36.77153834171091,"long":10.208723042160273},{"name":"STOA CABA","lat":36.76954569152275,"long":10.21402157843113},{"name":"SOFOMECA","lat":36.765867229865805,"long":10.221789255738258},{"name":"AV de France","lat":36.76310531327117,"long":10.225931592285633},{"name":"CNSS","lat":36.765064960152465,"long":10.223399586975574},{"name":"SNTRI","lat":36.76183585383309,"long":10.22488628514111},{"name":"HÔPITAL KASSAB ALLER","lat":36.81557960405769,"long":10.100319117209438},{"name":"Jardin d enfants Ben Arous","lat":36.758749243934645,"long":10.222488138824701},{"name":"Ben yedder Ben Arous","lat":36.75670294079229,"long":10.22051403298974},{"name":"Centre Ben Arous","lat":36.75345998379853,"long":10.22249836474657},{"name":"Municipalité Ben Arous","lat":36.748319323971195,"long":10.225330777466297},{"name":"Centre des handicapés","lat":36.74708138787588,"long":10.225674100220203},{"name":"CELLULOSE (silos)","lat":36.7454090141073,"long":10.225866213440895},{"name":"Institut ENNOUR","lat":36.73961896119324,"long":10.220953412353992},{"name":"Lycée secondaire Mourouj 3","lat":36.73413344297663,"long":10.216962285339832},{"name":"Imprimerie Bouslama","lat":36.729967185796454,"long":10.21874226629734},{"name":"Dépôt Bir El Kassaa","lat":36.72544974561761,"long":10.221983380615711},{"name":"Croisement Marché de Gros","lat":36.722780431896076,"long":10.224063768982887},{"name":"Marché de Gros","lat":36.724326188952084,"long":10.22848404943943},{"name":"Cité Aicha","lat":36.72040476409152,"long":10.234578028321266},{"name":"Station Barcelone","lat":36.797041408016824,"long":10.180130694061518},{"name":"BATA","lat":36.74941969484539,"long":10.227433629333973},{"name":"Croisement Yasminet","lat":36.744682225374966,"long":10.234665619209409},{"name":"Café Mhedhbi","lat":36.74781614619218,"long":10.238354578614235},{"name":"Cité RTT Ben Arous","lat":36.750704605022655,"long":10.241916552186012},{"name":"SIPHAT","lat":36.7531333300441,"long":10.244213528931141},{"name":"Gouvernorat de Ben Arous","lat":36.754457128761544,"long":10.248183198273182},{"name":"Mosquée Medina Jedida","lat":36.751311994963324,"long":10.251165814697742},{"name":"Médina Jedida","lat":36.747712984937216,"long":10.25144375860691},{"name":"Collège Yasminet","lat":36.73987796597868,"long":10.246337838470936},{"name":"Mosquée","lat":36.73858145556491,"long":10.244525168091059},{"name":"Cimetière Sidi Mosbeh","lat":36.74094299306824,"long":10.240909047424793},{"name":"Lycée Ibn Mandhour","lat":36.74436473589039,"long":10.243548341095448},{"name":"Station Av Annaba","lat":36.760717060233056,"long":10.22475192323327},{"name":"Rue Gaza","lat":36.75755163405158,"long":10.228806920349598},{"name":"Magasin Général Ben Arous","lat":36.75505253524599,"long":10.23199388757348},{"name":"Cité Hached ","lat":36.75049829014077,"long":10.237753763794899},{"name":"MECHTEL","lat":36.81353141794569,"long":10.172347157931654},{"name":"Croisement Yasminet route Mourneg","lat":36.743485403387226,"long":10.23449219763279},{"name":"Yasminet centre","lat":36.740719456821715,"long":10.238076634705067},{"name":"Café Yasminet","lat":36.73808614008577,"long":10.240886583924294},{"name":"Sidi Mosbah","lat":36.735096446327596,"long":10.24374146014452},{"name":"HÔPITAL RÉGIONAL YESMINET","lat":36.73224461546957,"long":10.246853325515985},{"name":"BAB ABDESLEM-ALLER","lat":36.80946337125705,"long":10.161086976659135},{"name":"BAB ABDESLEM-RETOUR","lat":36.80961798834171,"long":10.162771403920488},{"name":"MOSQUE ELBORJ","lat":36.812006784959,"long":10.166634052729933},{"name":"CHARLE NICOLE-ALLER","lat":36.80278017306314,"long":10.16354387946194},{"name":"CHARLE NICOLE-RETOUR","lat":36.80312379644207,"long":10.163855016362504},{"name":"DARGHOUTH BACHA ALLER","lat":36.79767417763264,"long":10.162871047723456},{"name":"RABTA","lat":36.7989366406194,"long":10.158260196185438},{"name":"STADE MELLASSINE-ALLER","lat":36.798184921312846,"long":10.153528779483167},{"name":"STADE MELLASSINE-RETOUR","lat":36.79814239528723,"long":10.154086813363392},{"name":"SOUK MELLASSINE-ALLER","lat":36.797978734174556,"long":10.150696367090859},{"name":"SOUK MELLASSINE-RETOUR","lat":36.797682339190885,"long":10.150015086001076},{"name":"CENTRE FORMATION ZOUHOUR-ALLER","lat":36.79720380924304,"long":10.14618502544181},{"name":"CENTRE FORMATION ZOUHOUR-RETOUR","lat":36.796960677043366,"long":10.146227806872048},{"name":"KHAROUBA-ALLER","lat":36.79670293891436,"long":10.143722623652138},{"name":"KHAROUBA-RETOUR","lat":36.79660843471643,"long":10.144543379283277},{"name":"MOSQUÉE EL BATTANE","lat":36.80469234606514,"long":9.84493097741506},{"name":"OFFICE D'HUILE-ALLER","lat":36.79603711140038,"long":10.138631790614454},{"name":"OFFICE D'HUILE-RETOUR","lat":36.795530219477314,"long":10.137548178172437},{"name":"ESSLAIA","lat":36.8059498971023,"long":9.840007247112226},{"name":"NUMÉRO   7","lat":36.80715194986671,"long":9.838234842609381},{"name":"Siefcol","lat":36.76256892641437,"long":10.229299440979958},{"name":"Centre de Formation SNT","lat":36.76161096829612,"long":10.23176858201623},{"name":"BEN DHEFALLAH","lat":36.80905585319156,"long":9.829061955606448},{"name":"Société NOUR","lat":36.76081275025848,"long":10.233796583488584},{"name":"MIZANETTA-ALLER","lat":36.79436005960987,"long":10.131666228044196},{"name":"Lustreries","lat":36.75701870037192,"long":10.243097729980946},{"name":"Chouchet Rades","lat":36.75617631377833,"long":10.247539468109608},{"name":"MIZANETTA-RETOUR","lat":36.79377153626521,"long":10.13058798002021},{"name":"ZOUITINA","lat":36.81762258195091,"long":9.810876310657477},{"name":"Imprimerie Officielle","lat":36.76077897337192,"long":10.250070467591286},{"name":"Rades Forêt","lat":36.76506388579839,"long":10.256680436432362},{"name":"Lycée Technique Rades","lat":36.76643904671109,"long":10.26071447879076},{"name":"ECOLE ZOUHOUR4-ALLER","lat":36.79103591738339,"long":10.127205312383012},{"name":"Mongil","lat":36.76731798185667,"long":10.266122315078974},{"name":"Centre Rades","lat":36.76707733323549,"long":10.269791577011347},{"name":"ECOLE ZOUHOUR4-RETOUR","lat":36.79098522515073,"long":10.127382606005995},{"name":"PTT rades ","lat":36.767882939128484,"long":10.273117013275623},{"name":"Rades Meliene","lat":36.7683117908888,"long":10.275858985260129},{"name":"IMMEUBLES HRAIRIA-ALLER","lat":36.787014792969686,"long":10.123879373204545},{"name":" Lycée Ibn Khaldoun","lat":36.76805711218527,"long":10.282097551971674},{"name":"IMMEUBLES HRAIRIA-RETOUR","lat":36.78734645772959,"long":10.124319523638405},{"name":" Souk Radès","lat":36.77161286869693,"long":10.286120362579823},{"name":"Village d'enfants","lat":36.77381635051364,"long":10.289709912613034},{"name":" Casino de Radès","lat":36.77544057128043,"long":10.290922271087766},{"name":"Les Bangalows","lat":36.7761355140237,"long":10.290755722671747},{"name":"Rades Plage 1","lat":36.77711517721997,"long":10.289768669754267},{"name":"Rades Plage 2","lat":36.77861042848558,"long":10.288255903869867},{"name":"Lac de Rades","lat":36.786104640541744,"long":10.282855778932571},{"name":"Les Salines","lat":36.793509786947936,"long":10.278782341629267},{"name":"CITE ESSALAMA","lat":36.784111375477934,"long":10.117158025241224},{"name":"STEG Rades","lat":36.796290274253444,"long":10.279748188331723},{"name":"Kochbati","lat":36.79991660294719,"long":10.282987542450428},{"name":"Nord Gaz","lat":36.80252819960733,"long":10.28618473559618},{"name":"DEPOT SNT SIJOUMI","lat":36.78373243646365,"long":10.117399156224565},{"name":"Bac Terminus 17","lat":36.80597699224183,"long":10.290367975831032},{"name":"CITE ERAFEHA","lat":36.845400321652704,"long":10.116797805094393},{"name":"GUERISSI","lat":36.851204114901535,"long":10.11686217811075},{"name":"Capitainnerie","lat":36.801216103556115,"long":10.272269938141108},{"name":"BEN DAHA-RETOUR","lat":36.782357585865356,"long":10.112013279867824},{"name":"Port de Rades (terminus)","lat":36.800116475924945,"long":10.265607330948114},{"name":"MNIHLA","lat":36.857591214574356,"long":10.116475940012606},{"name":"BEN DAHA-ALLER","lat":36.78132299441504,"long":10.111267894571938},{"name":"KIOSQUE","lat":36.868144496567446,"long":10.117204428242985},{"name":"BORJ JEBES","lat":36.87177141235596,"long":10.115724921488436},{"name":"SANHEJI","lat":36.878031778894375,"long":10.115530729817692},{"name":"SIDI MAROUEN","lat":36.893997137074045,"long":10.116358727282204},{"name":"NAHLI","lat":36.889864365857264,"long":10.117399156224565},{"name":"Av Hédi Nouira","lat":36.81050217280712,"long":10.268300268799067},{"name":"BEN ARFA","lat":36.88259734881035,"long":10.11557364516193},{"name":"MC 33","lat":36.81690300438947,"long":10.298006907105446},{"name":"Port la Goulette","lat":36.81195556942923,"long":10.303757563233376},{"name":"GEANT","lat":36.898219201271914,"long":10.120488524698885},{"name":"Lycée Mégrine Riadh","lat":36.76915491706517,"long":10.220695920288563},{"name":"SABALET BEN AMAR","lat":36.908050473464414,"long":10.108446210688271},{"name":"Biscuits Saida","lat":36.77187297402467,"long":10.224419329315424},{"name":"EL MACHTA","lat":36.91380111366385,"long":10.106305539738969},{"name":"Cité Commerciale","lat":36.770076792446645,"long":10.232187006622553},{"name":"Silos Mégrine Coteaux","lat":36.7688970854047,"long":10.235780663788319},{"name":"Jardin d'enfants","lat":36.76766132784953,"long":10.24132835213095},{"name":"Gare Sidi Rezig","lat":36.76857049739017,"long":10.245007462799549},{"name":"PÉAGE ","lat":36.92601296781905,"long":10.099738957069349},{"name":"BORJ YOUSSEF","lat":36.94409063409948,"long":10.08858096494805},{"name":"Av République 1","lat":36.77037530849379,"long":10.243677087128162},{"name":"Parc municipal","lat":36.77129716920194,"long":10.241875145584345},{"name":"ESSALAT","lat":36.9610152627037,"long":10.079590202949475},{"name":"Salle des sports","lat":36.77300738281371,"long":10.241081211715937},{"name":"ESSALAT","lat":36.9610152627037,"long":10.079590202949475},{"name":"Stade Megrine Coteaux","lat":36.77356598703428,"long":10.239064190536737},{"name":"Av République 2","lat":36.774396433309384,"long":10.23836706764996},{"name":"OUED ELMELAH","lat":36.97634192324111,"long":10.06744515922037},{"name":"Av République 3","lat":36.774053553881764,"long":10.233527608215809},{"name":"Terminus M-Coteaux","lat":36.77073109566975,"long":10.231838570907712},{"name":"PONT BIZERTE CLASSE ","lat":36.99298516887828,"long":10.06268155600992},{"name":"PONT BIZERTE","lat":36.99349932033491,"long":10.06819617774454},{"name":"PONT BIZERTE","lat":36.99349932033491,"long":10.06819617774454},{"name":"TOBYAS","lat":36.99908620871529,"long":10.072037101053866},{"name":"METHALI","lat":37.01182897613909,"long":10.070707261693315},{"name":"OUED MAJERDA","lat":37.01983022280066,"long":10.075524509084062},{"name":"GESIR 2","lat":37.03444274467591,"long":10.08480495227559},{"name":"GESIR 1","lat":37.03139370491743,"long":10.081092775653815},{"name":"HUILERIE ENTRÉE KALAAT ","lat":37.04375733091395,"long":10.093275636500039},{"name":"MTHALITH","lat":36.913892399737136,"long":10.10079118583235},{"name":"FRECHICH","lat":36.91466871543179,"long":10.09942862430762},{"name":"FERME BEN AMMAR","lat":36.9098636484159,"long":10.102110564839677},{"name":"JABBES elborj","lat":36.89259852550543,"long":10.087423056511398},{"name":"Cité Jaouhara","lat":36.77564621483332,"long":10.227895472198725},{"name":"Café Ayed","lat":36.779392416094225,"long":10.231564734131098},{"name":"Terminus Cité Chaker","lat":36.78198806364763,"long":10.234064552932978},{"name":"Société STIL","lat":36.79258144752489,"long":10.190425389446318},{"name":"Pont autoroute sud  (saint-gouban)","lat":36.78091219371012,"long":10.200826115906239},{"name":"SICOAC","lat":36.7792956079648,"long":10.204001851379871},{"name":"PROCID","lat":36.778215672095186,"long":10.20577261224389},{"name":"Ponts et Chaussées ","lat":36.77627072869921,"long":10.211447663605213},{"name":"Société NADHIF","lat":36.774362930961814,"long":10.217992253601551},{"name":"Lycée Taha Hssine Megrine","lat":36.776587817591164,"long":10.224719988182187},{"name":"Jebel Jelloud","lat":36.773178052948474,"long":10.202564187347889},{"name":"CROISEMENT KSAR SAID 2","lat":36.82602279160308,"long":10.117813423275948},{"name":"SPROLOS","lat":36.8265859070969,"long":10.11643711477518},{"name":"Kiosque MOBIL  Ben Arous","lat":36.75702957934746,"long":10.21878669038415},{"name":"Centre traimotologie des grands brulés","lat":36.74719543035002,"long":10.211147759109735},{"name":"Jardin d enfants AMEN","lat":36.738646543569686,"long":10.240185605362058},{"name":"Boucherie Nord","lat":36.73707628845559,"long":10.23699352517724},{"name":"Café Folla","lat":36.73525349748624,"long":10.235545132309198},{"name":"Lycée Yassminet","lat":36.73312226302239,"long":10.237503396347165},{"name":"Rabattement M.J. 2","lat":36.743242530672696,"long":10.192177668213844},{"name":"Le Souk (des voitures)","lat":36.73498870018006,"long":10.193636789917946},{"name":"Couroisement Mourouj 2 L24","lat":36.732691199266775,"long":10.194024536758661},{"name":"Feraille 1","lat":36.73020795083108,"long":10.192392244935036},{"name":"Feraille 2","lat":36.72895709300985,"long":10.191384740173817},{"name":"Ferme Loukil","lat":36.72649320626803,"long":10.189817324280739},{"name":"Zone Industrielle","lat":36.72373108154329,"long":10.187866184860468},{"name":"Cité El Hidhab","lat":36.71018748014349,"long":10.178015604615211},{"name":"Mghira","lat":36.706470020113414,"long":10.17485210672021},{"name":"Cité El Ouifak (GN)","lat":36.702693914791105,"long":10.172137711197138},{"name":"Fouchana Centre","lat":36.69938214352963,"long":10.169745180755854},{"name":"Garde Nationale Fouchana","lat":36.69517327313833,"long":10.166150517761707},{"name":"Cité Zitoun","lat":36.69168051402314,"long":10.163511224091053},{"name":"Dispensaire ","lat":36.68550327575558,"long":10.159949250519276},{"name":"Cité Ennassim","lat":36.680602683924924,"long":10.157042490318418},{"name":"Siège Délégation Mhamdia","lat":36.67886863113088,"long":10.156672345474362},{"name":"Mhamdia Centre","lat":36.67547896130221,"long":10.156034105457366},{"name":"Cité Essaada (Mhamdia)","lat":36.669156715631985,"long":10.154038164764643},{"name":"Lycée secondaire Mhamdia","lat":36.66821870280825,"long":10.153555367141962},{"name":"Cité Tayari","lat":36.66730333595189,"long":10.15299235470593},{"name":"Cité Trabelsi","lat":36.664003554812105,"long":10.14982022345066},{"name":"Cebalet Cheikh","lat":36.65070295190626,"long":10.133758150041103},{"name":"Croisement Ouedhna/Jebel Oust","lat":36.63906347670316,"long":10.128578133881092},{"name":"Ouedhna village","lat":36.62249810751892,"long":10.129822678864002},{"name":"Ouedhna (Terminus)","lat":36.62499519460844,"long":10.151022858917713},{"name":"Cité El Ouifak","lat":36.70809566663923,"long":10.170185063034296},{"name":"Cité El Ouifak 2","lat":36.70525492901821,"long":10.166279263794422},{"name":"Cité El Amal","lat":36.703576738491336,"long":10.164080606773496},{"name":"Cité Erriadh Fouchana","lat":36.70223464018122,"long":10.16242989571765},{"name":" Centre de coordination Ouardia","lat":36.78060458853434,"long":10.195623133331537},{"name":"El Afrane","lat":36.77966739885177,"long":10.196620915085077},{"name":"Délégation elouardia","lat":36.78163048256888,"long":10.194480889476836},{"name":"Hammam Bellevue","lat":36.78103370479908,"long":10.193906519562006},{"name":"Café El Quods","lat":36.78041614450933,"long":10.192903624847531},{"name":"Salle des fêtes Bellevue","lat":36.77837954995236,"long":10.19070957787335},{"name":"Bellevue","lat":36.77403119650534,"long":10.187018858268857},{"name":"Immeuble Rades forêt","lat":36.76193530285549,"long":10.257345624268055},{"name":"Immeuble Rades forêt 1","lat":36.7617827381984,"long":10.255741849250626},{"name":"terminus R.F 19D ","lat":36.76039439371197,"long":10.258060381729592},{"name":"NOUBOU","lat":36.75718430238815,"long":10.277494881302118},{"name":"Borj Louzir (Ben Arous)","lat":36.74732317383889,"long":10.289317555725574},{"name":"Cité 18 janvier termenus 39","lat":36.7434767725531,"long":10.286727421917021},{"name":"Fatouma Bourguiba","lat":36.672805928542054,"long":10.156548712402582},{"name":"Cité Ellouz","lat":36.67228047406202,"long":10.157750342041254},{"name":"Cité el elmi 1","lat":36.67015495525294,"long":10.159284565597773},{"name":"Cité el elmi (Terminus)","lat":36.670129138874124,"long":10.162159893661737},{"name":"Entrée Fouchana","lat":36.69778265744906,"long":10.171397421509027},{"name":"Lycée Fouchana","lat":36.69713808203267,"long":10.172990905120969},{"name":"Ferme Gammoudi","lat":36.695259299685794,"long":10.177372880280018},{"name":"Huilerie Nahli","lat":36.69281153798233,"long":10.185182467103004},{"name":"Briquetterie Tunisienne","lat":36.6909406481322,"long":10.190912671387196},{"name":"Mosquée Rahma","lat":36.689839439204505,"long":10.195483155548573},{"name":"Derbigum","lat":36.69208398258443,"long":10.200370894744992},{"name":"Chebedda","lat":36.692364184642415,"long":10.206725969910622},{"name":"Douar Houch L(24D)","lat":36.68030872587372,"long":10.218378994613886},{"name":"Mourouj 1","lat":36.733980655097234,"long":10.20198302809149},{"name":"Mosquée Mourouj 1","lat":36.73268001455085,"long":10.203592353500426},{"name":"Complexe Commercial Mourouj 1","lat":36.73333608103261,"long":10.208186600357294},{"name":"Immeuble l oasis","lat":36.73496975726319,"long":10.209667179733515},{"name":"BATAM","lat":36.73745231431461,"long":10.208229012787342},{"name":"Croisement Mourouj 2 ","lat":36.7402500151512,"long":10.205971347168088},{"name":"Pont Mourouj 2","lat":36.74316112515504,"long":10.207992978394032},{"name":"hammam lacagna","lat":36.770334620140126,"long":10.189743731170893},{"name":"Lacagna (section)","lat":36.77295581914199,"long":10.187501404434443},{"name":"Lycée Ouardia","lat":36.77693642587446,"long":10.183872752822936},{"name":"Monopoles","lat":36.78039036516957,"long":10.181670533493161},{"name":" STEG MANNOUBA ALLER","lat":36.80770153609811,"long":10.101249977160478},{"name":"CASERNE MANNOUBA - ALLER","lat":36.81344946082082,"long":10.098146528071084},{"name":"EL FARABI MANNOUBA - RETOUR","lat":36.811327847822476,"long":10.099385708635964},{"name":"L'ENVIRONNEMENT MANNOUBA","lat":36.8070893492724,"long":10.103559359940846},{"name":"LYCEE IBN ABI DHIEF MANNOUBA","lat":36.80835147817522,"long":10.1037523447485},{"name":"ibn sina","lat":36.74470284501892,"long":10.186675284057856},{"name":"HOPITAL DES ENFANTS ","lat":36.80751395066778,"long":10.15935453811835},{"name":"CASERNE EZZOUHOUR ALLER","lat":36.792946557911854,"long":10.127503439765633},{"name":" CASERNE EZZOUHOUR RETOUR","lat":36.79288856386952,"long":10.127602681550343},{"name":"BEN DAHA-32C","lat":36.78171397537893,"long":10.108585685229627},{"name":"SONOBOIS","lat":36.781361662950886,"long":10.1082745489839},{"name":"CAFE ZIED","lat":36.78005551493943,"long":10.102341502642957},{"name":"TRIBUNAL TOUNES 2","lat":36.77972467779842,"long":10.102223485446302},{"name":"JAYARA-ALLER","lat":36.77841334583557,"long":10.096338450384792},{"name":"JAYARA-RETOUR","lat":36.77801805134387,"long":10.096198976170854},{"name":"DEPOT ZAHROUNI ALLER","lat":36.77701777535927,"long":10.091167420214333},{"name":"TERMINUS 32C-71-515","lat":36.77734776472063,"long":10.088903367650346},{"name":"TERMINUS 32D","lat":36.776058735640405,"long":10.115006625128444},{"name":"SIDI HSIN SECTION-RETOUR","lat":36.77620568598655,"long":10.11445972329966},{"name":"SIDI HSIN SECTION-ALLER","lat":36.77475335662253,"long":10.114588469332375},{"name":"ROND-POINT SIDI HSIN-ALLER","lat":36.77029307235333,"long":10.112582176989235},{"name":"ROND-POINT SIDI HSIN-RETOUR","lat":36.77019423838749,"long":10.112727015948622},{"name":"SIDI HSIN-ALLER","lat":36.76969147266162,"long":10.113301008677809},{"name":"SIDI HSIN-RETOUR","lat":36.769008221647205,"long":10.113740890956251},{"name":"avenue de la gare","lat":36.790426314912146,"long":10.180199530441314},{"name":"HÔPITAL MILITAIRE  ","lat":36.78561365963494,"long":10.179905388504267},{"name":" El wouroud El mourouj 1","lat":36.73900791869146,"long":10.205515371635556},{"name":"Cité Med Ali","lat":36.76681089995251,"long":10.191986057907343},{"name":"E.P. kabaria","lat":36.76334718303271,"long":10.191481802612543},{"name":"Pont métro kabaria","lat":36.76228192970274,"long":10.18755504861474},{"name":"imm militaire ibn sina","lat":36.759274174479614,"long":10.186659442260861},{"name":"mosquée ibn sina","lat":36.75786507334426,"long":10.181713574565947},{"name":"ibn sina(section)","lat":36.75523305008204,"long":10.178693030029535},{"name":"Ecole Primaire 6","lat":36.752006350483384,"long":10.180168496444821},{"name":"rue 10800 (1)","lat":36.74941022516827,"long":10.180340157821774},{"name":"Rue 10800 (2)","lat":36.74638732360428,"long":10.182963106781244},{"name":"Hammam J-Jelloud","lat":36.7676371221249,"long":10.195006476715207},{"name":"Jebel Jelloud 9B","lat":36.76721169099908,"long":10.197790609672666},{"name":"Mosquée Cité El Feth","lat":36.765992122119414,"long":10.201577134430408},{"name":"Garjouma","lat":36.76538102104235,"long":10.205214964225888},{"name":"PTT Sidi Fathallah","lat":36.765960026172586,"long":10.208562109619379},{"name":"Sonede","lat":36.76529492194135,"long":10.210255023557693},{"name":"Cité Thameur","lat":36.76474070597591,"long":10.20866428501904},{"name":" Sidi fathallah2","lat":36.76676671813417,"long":10.209237523376942},{"name":"Sidi fathallah1","lat":36.76903567002998,"long":10.207435078918934},{"name":"Protection Cevile","lat":36.77192332988446,"long":10.203722901642323},{"name":"sommet el mourouj 2","lat":36.73416152178884,"long":10.196406338363886},{"name":"Croisement Mourouj 2 L(54A)","lat":36.73829490647882,"long":10.203336663544178},{"name":" Miami Mourouj","lat":36.73195226558419,"long":10.212349388748407},{"name":"EZZOUHOUR 4 ALLER","lat":36.790824869183815,"long":10.120190497455042},{"name":"POSTE POLICE ( 17 ) ZAHROUNI ALLER","lat":36.78969015128133,"long":10.115555640359162},{"name":"POSTE POLICE ( 17 ) ZAHROUNI RETOUR","lat":36.789653715547175,"long":10.115674898061116},{"name":" EL AKERMA ALLER","lat":36.78834710026592,"long":10.111600488489785},{"name":"EL AKERMA RETOUR","lat":36.78826423894892,"long":10.111580573038736},{"name":"MOSQUÉ ZAHROUNI-ALLER","lat":36.79033051750091,"long":10.109312698114081},{"name":"USINE DE TOMATES-ALLER","lat":36.76565977400876,"long":10.11435216612881},{"name":"USINE DE TOMATES-RETOUR","lat":36.7654620941364,"long":10.1146203870303},{"name":"CROISEMENT 20 MARS","lat":36.760270666260816,"long":10.114824235570268},{"name":"COFAT","lat":36.76036607486041,"long":10.115039080446877},{"name":"LYCEE MIXTE SIDI HSIN","lat":36.75562730676553,"long":10.116969466471346},{"name":"CHAKIRA","lat":36.7556462179579,"long":10.117313325536088},{"name":"SALLE FERDAOUES-ALLER","lat":36.74702405765205,"long":10.121046960484819},{"name":"SALLE FERDAOUES-RETOUR","lat":36.74695184396401,"long":10.12124571177992},{"name":"25 JUILLET-ALLER","lat":36.744178446150485,"long":10.120510518027004},{"name":"25 JUILLET-RETOUR","lat":36.74450513789763,"long":10.12084311194485},{"name":"CROISEMENT BIRINE-ALLER","lat":36.74065352414665,"long":10.120982587468461},{"name":"CROISEMENT BIRINE-RETOUR","lat":36.740856426532154,"long":10.121138423746743},{"name":"CITE OMAR MOKHTAR-ALLER","lat":36.73267456651459,"long":10.12398666156514},{"name":"CITE OMAR MOKHTAR-RETOUR","lat":36.73229623327562,"long":10.124415815007524},{"name":"M3EOU","lat":36.72980262678658,"long":10.125445783269242},{"name":"USINE DATIERS","lat":36.729743295081235,"long":10.125757187670388},{"name":"CITE HEDI NOUIRA-ALLER","lat":36.727754369087165,"long":10.127312064432772},{"name":"CITE HEDI NOUIRA-RETOUR","lat":36.72783348006652,"long":10.12776321185811},{"name":"ECHOUK-ALLER","lat":36.723881276497735,"long":10.132181883382145},{"name":"ECHOUK-RETOUR","lat":36.72395351149697,"long":10.132697940134676},{"name":"CITE MONJI SLIM","lat":36.71297640466873,"long":10.146258116292302},{"name":"STATION MONGI SLIM","lat":36.7132206629102,"long":10.146860003733309},{"name":"KHAZNA-ALLER","lat":36.71162092726746,"long":10.150936961435946},{"name":"KHAZNA-RETOUR","lat":36.71184454823083,"long":10.150550723337801},{"name":"CITE PRIM-ALLER","lat":36.70326047687183,"long":10.160700202250155},{"name":"CITE PRIM-RETOUR","lat":36.70364067332546,"long":10.160765111577348},{"name":"FOUCHANA-ALLER","lat":36.700045073737016,"long":10.16619390262349},{"name":"FOUCHANA-RETOUR","lat":36.7004063615615,"long":10.166032970082597},{"name":"CITE OUIFAK","lat":36.70246911111596,"long":10.172351718210848},{"name":"GARTEX-ALLER","lat":36.70665981493821,"long":10.174326360356645},{"name":"GARTEX-RETOUR","lat":36.706492948151954,"long":10.174305170839943},{"name":"BATOIRE-ALLER","lat":36.708569296265864,"long":10.172051847112016},{"name":"BATOIRE-RETOUR","lat":36.7085056477052,"long":10.171923369234719},{"name":"CENTRE FORMATION MGHIRA-ALLER","lat":36.71232791142511,"long":10.16771739734395},{"name":"CENTRE FORMATION MGHIRA-RETOUR","lat":36.71295576285501,"long":10.166623056065873},{"name":"MGHIRA-ALLER","lat":36.716230827843304,"long":10.163189292215975},{"name":"MGHIRA-RETOUR","lat":36.71616374555756,"long":10.162867963445024},{"name":"TERMINUS MGHIRA","lat":36.7184496739082,"long":10.161644339823397},{"name":"CROISEMENT BIRINE VERS BIRINE","lat":36.74027609030498,"long":10.120585888689675},{"name":"USINE CARRELAGE RTE BIRINE-ALLER","lat":36.73397980203563,"long":10.11188399817911},{"name":"USINE CARRELAGE RTE BIRINE-RETOUR","lat":36.73431685509963,"long":10.112603366505937},{"name":"HOUIJ-ALLER","lat":36.731711532784765,"long":10.110328853097599},{"name":"HOUIJ-RETOUR","lat":36.731591152719204,"long":10.11052197231038},{"name":"ENTREE BIRINE-ALLER","lat":36.72285277579259,"long":10.11014592673746},{"name":"ENTREE BIRINE-RETOUR","lat":36.72270830286835,"long":10.110371768605546},{"name":"ECOLE BIRINE-ALLER","lat":36.717228456746845,"long":10.107163310312899},{"name":"ECOLE BIRINE-RETOUR","lat":36.717089133420295,"long":10.107287496393838},{"name":"CROISEMENT BIRINE/ATTAR-ALLER","lat":36.71184454849332,"long":10.104502558970125},{"name":"CROISEMENT BIRINE/ATTAR-RETOUR","lat":36.71176026051068,"long":10.10478204501851},{"name":"MOSQUE BIRINE-ALLER","lat":36.703528851119245,"long":10.09829109920247},{"name":"MOSQUE BIRINE-RETOUR","lat":36.70350820689888,"long":10.09848448640696},{"name":"BIRINE-ALLER","lat":36.70024980381334,"long":10.09514701392618},{"name":"BIRINE-RETOUR","lat":36.70022657805781,"long":10.095298022097268},{"name":"TERMINUS BOUHAMED","lat":36.69753321529337,"long":10.093334376942948},{"name":"TERMINUS TAIEB MHIRI","lat":36.697287078832204,"long":10.129821673035622},{"name":"CITE 25 JUILLET","lat":36.746483313800866,"long":10.12075754973921},{"name":"TERMINUS 25 JUILLET","lat":36.744686537313626,"long":10.117125838733045},{"name":"TERMINUS 33B","lat":36.75160260558792,"long":10.110093086695997},{"name":"POSTE POLICE ATTAR-ALLER","lat":36.76696272964563,"long":10.111235707736341},{"name":"POSTE POLICE ATTAR-RETOUR","lat":36.766923194068944,"long":10.111455381047563},{"name":"SALLE NILE-ALLER","lat":36.761749055775276,"long":10.1081187123782},{"name":"SALLE NILE-RETOUR","lat":36.7616459131235,"long":10.108301103246049},{"name":"LYCEE EMTIEZ-ALLER","lat":36.75870629310768,"long":10.105168282461818},{"name":"LYCEE EMTIEZ-RETOUR","lat":36.75865471968762,"long":10.105382859837846},{"name":"CITE BERHOUMA-ALLER","lat":36.751030087531774,"long":10.100061356497463},{"name":"CITE BERHOUMA-RETOUR","lat":36.75093380736376,"long":10.100339770579012},{"name":"BOUNAOUIRA-ALLER","lat":36.74606120394029,"long":10.095244109106716},{"name":"BOUNAOUIRA-RETOUR","lat":36.74587894789175,"long":10.095576167368563},{"name":"ENTREE ATTAR-ALLER","lat":36.73774749133456,"long":10.083721339178737},{"name":"ENTREE ATTAR-RETOUR","lat":36.73746376019834,"long":10.08379644168599},{"name":"ATTAR-ALLER","lat":36.73219305129082,"long":10.071093499136623},{"name":"ATTAR-RETOUR","lat":36.73209846743145,"long":10.07131880534871},{"name":"ECOLE ATTAR-ALLER","lat":36.73047848808859,"long":10.068164795702614},{"name":"ECOLE ATTAR-RETOUR","lat":36.73035294680459,"long":10.068282544743852},{"name":"CROISEMENT MORNAGUIA-ALLER","lat":36.72711975957751,"long":10.063701331746415},{"name":"CROISEMENT MORNAGUIA-RETOUR","lat":36.72677407540344,"long":10.063518405222567},{"name":"ROUTE MORNAGUIA-ALLER","lat":36.73342950761933,"long":10.050579427625053},{"name":"ROUTE MORNAGUIA-RETOUR","lat":36.733223146294705,"long":10.050257563852938},{"name":"BOURAGBA-ALLER","lat":36.73728148386416,"long":10.039013742352836},{"name":"BOURAGBA-RETOUR","lat":36.737119842422615,"long":10.038896262121852},{"name":"MOSQUE BOURAGBA-ALLER","lat":36.73844907614729,"long":10.035543769336073},{"name":"MOSQUE BOURAGBA-RETOUR","lat":36.738228971852315,"long":10.035570323598222},{"name":"LE MOULIN L34A-ALLER","lat":36.74204717729453,"long":10.029900401568739},{"name":"LE MOULIN L34A-RETOUR","lat":36.74213315136376,"long":10.029583900904981},{"name":"CITE GHALLAMA-ALLER","lat":36.749027958123115,"long":10.024954408145277},{"name":"CITE GHALLAMA-RETOUR","lat":36.74898411524664,"long":10.024712741505937},{"name":"LYCEE MORNAGUIA-ALLER","lat":36.756635598226616,"long":10.019471972918836},{"name":"LYCEE MORNAGUIA-RETOUR","lat":36.756523853040335,"long":10.019370049303689},{"name":"MORNAGUIA-ALLER","lat":36.75634334124171,"long":10.013517468905775},{"name":"MORNAGUIA-RETOUR","lat":36.75656941073907,"long":10.013150140512153},{"name":"20 MARS-ALLER","lat":36.75723128333956,"long":10.010038778054877},{"name":"20 MARS-RETOUR","lat":36.757086875207385,"long":10.009971588915505},{"name":"LYCEE 20 MARS-ALLER","lat":36.75777796860204,"long":10.00026172347134},{"name":"LYCEE 20 MARS-RETOUR","lat":36.75759745962345,"long":10.00048702902859},{"name":"FIRMA-ALLER","lat":36.754727311996604,"long":9.992193907237379},{"name":"FIRMA-RETOUR","lat":36.754640492319034,"long":9.992558419835404},{"name":"GUITOUNI-ALLER","lat":36.751873389793595,"long":9.980070322490064},{"name":"GUITOUNI-RETOUR","lat":36.75181235590946,"long":9.980316817891435},{"name":"CROISEMENT SIDI ALI HATTAB-ALLER","lat":36.74912166140837,"long":9.973235785437282},{"name":"CROISEMENT SIDI ALI HATTAB-RETOUR","lat":36.748760602421115,"long":9.973364532124833},{"name":"PRISON CIVILE MORNAGUIA","lat":36.73983675085534,"long":9.975563942862209},{"name":"CROISEMENT BIRINE/ATTAR L34-ALLER","lat":36.72381592141359,"long":10.074697851086967},{"name":"CROISEMENT BIRINE/ATTAR L34-RETOUR","lat":36.72382623981237,"long":10.07505244029744},{"name":"FIRMAT AICHA LOUERDANIA-ALLER","lat":36.712414778899074,"long":10.070680707758584},{"name":"FIRMAT AICHA LOUERDANIA-RETOUR","lat":36.712501216343796,"long":10.070849820840522},{"name":"GHDHAOUNIA-ALLER","lat":36.69812763870714,"long":10.068669050669996},{"name":"GHDHAOUNIA-RETOUR","lat":36.698040754820425,"long":10.068937003743486},{"name":"GHDHAOUNIA MOSQUE-ALLER","lat":36.6965559769351,"long":10.053157970833126},{"name":"GHDHAOUNIA MOSQUE-RETOUR","lat":36.69620499394301,"long":10.053471654719033},{"name":"KIOSQUE-ALLER","lat":36.674403056880315,"long":10.063867896533338},{"name":"KIOSQUE-RETOUR","lat":36.674377241861094,"long":10.06403419381968},{"name":"USINE DE BALLES-ALLER","lat":36.66193686857323,"long":10.053616225195583},{"name":"USINE DE BALLES-RETOUR","lat":36.661868878282355,"long":10.053809612727491},{"name":"GHOUL KAMMOUN-ALLER","lat":36.6395983587186,"long":10.037404418253573},{"name":"GHOUL KAMMOUN-RETOUR","lat":36.63937624929021,"long":10.037576615941362},{"name":"EL ALIA-ALLER","lat":36.60253857783633,"long":10.029057920110063},{"name":"EL ALIA-RETOUR","lat":36.60250498712836,"long":10.029288858240761},{"name":"CROISEMENT ZAGHOUAN/FAJJA-ALLER","lat":36.594757188949345,"long":10.014976590609876},{"name":"CROISEMENT ZAGHOUAN/FAJJA-RETOUR","lat":36.594425553765234,"long":10.01484784490458},{"name":"AIN ASKAR-ALLER","lat":36.57492892890141,"long":9.994221391389146},{"name":"AIN ASKAR-RETOUR","lat":36.574921176045464,"long":9.994436233973829},{"name":"CROISEMENT AIN ASKAR-ALLER","lat":36.561434946973016,"long":9.986121117544826},{"name":"CROISEMENT AIN ASKAR-RETOUR","lat":36.56116607673126,"long":9.985948920511873},{"name":"FRACHICH-ALLER","lat":36.56182273750658,"long":9.967678248358425},{"name":"FRACHICH-RETOUR","lat":36.56177189395336,"long":9.967828720873513},{"name":"EL MNAGAA-ALLER","lat":36.55464397877276,"long":9.943967520666774},{"name":"EL MNAGAA-RETOUR","lat":36.55470947825386,"long":9.944193094706861},{"name":"FIRMA L34-ALLER","lat":36.54756884469824,"long":9.925846785044996},{"name":"FIRMA L34-RETOUR","lat":36.547352503683484,"long":9.92598599208577},{"name":"EPICIER LAGRAA","lat":36.55281169405358,"long":9.902629718053504},{"name":"TERMINUS OMAR MOKHTAR","lat":36.73303054220615,"long":10.126516386899311},{"name":"SIDI ABDALLAH-ALLER","lat":36.732516784793525,"long":10.12332992242591},{"name":"SIDI ABDALLAH-RETOUR","lat":36.732501737322266,"long":10.123453304204304},{"name":"CITE BEN NASR-ALLER","lat":36.726811051777815,"long":10.121149152255384},{"name":"CITE BEN NASR-RETOUR","lat":36.7268196509611,"long":10.121347635722486},{"name":"CROISEMENT BIRINE L33A/-ALLER","lat":36.71241305891057,"long":10.115157231557532},{"name":"CROISEMENT BIRINE L33A/-RETOUR","lat":36.71251841768397,"long":10.11523233340995},{"name":"CITE KOUIER-ALLER","lat":36.70971840281884,"long":10.1212027967631},{"name":"CITE KOUIER-RETOUR","lat":36.70986031964619,"long":10.121310084796278},{"name":"AYARI-ALLER","lat":36.773842414259924,"long":10.112914770579664},{"name":"AYARI-RETOUR","lat":36.7736967481485,"long":10.112839802968665},{"name":"MOSQUE CITE MRAD-ALLER","lat":36.772201401067264,"long":10.108947917688056},{"name":"MOSQUE CITE MRAD-RETOUR","lat":36.77217132191397,"long":10.109068617093726},{"name":"EZZITOUN-ALLER","lat":36.77099350025643,"long":10.105377763247816},{"name":"EZZITOUN-RETOUR","lat":36.77101068852521,"long":10.105914205050794},{"name":"LADWECH-ALLER","lat":36.7697692512237,"long":10.101601347196265},{"name":"LADWECH-RETOUR","lat":36.76976280546163,"long":10.101877614888508},{"name":"ECOLE CITE MRAD-ALLER","lat":36.7682824219786,"long":10.099300011861487},{"name":"ECOLE CITE MRAD-RETOUR","lat":36.76829961088794,"long":10.099444851312},{"name":"MONTAZAH","lat":36.76740964831809,"long":10.098049968546547},{"name":"MONCEF BEY RETOUR","lat":36.792532185892085,"long":10.186125800046284},{"name":"SIDI BECHIR-ALLER","lat":36.79146894905645,"long":10.17749981569068},{"name":"SIDI BECHIR-RETOUR","lat":36.79059901703366,"long":10.17834471169408},{"name":"MOSQUE SIDI BECHIR","lat":36.79208326560356,"long":10.176665648687049},{"name":"BAB JDID-ALLER","lat":36.792158443716545,"long":10.172130033242865},{"name":"BAB JDID-RETOUR","lat":36.79187061807252,"long":10.17374472323354},{"name":"Centre Challakh El Mourouj 4","lat":36.71915482158737,"long":10.216490216553211},{"name":"Croisement d El Mourouj 3","lat":36.72055781413563,"long":10.216576550155878},{"name":"Mourouj 4 L(3710-54)","lat":36.72135470410396,"long":10.220830785110593},{"name":"BAB MNARA-ALLER","lat":36.79324959392459,"long":10.170067414510413},{"name":"BAB MNARA-RETOUR","lat":36.79520632253074,"long":10.169050857293769},{"name":"KASBAH","lat":36.796344681631794,"long":10.168117448556586},{"name":"TELECOM","lat":36.80025578275714,"long":10.165188476312323},{"name":"BOUCHOUCHA-RETOUR","lat":36.80922843846865,"long":10.14978723214881},{"name":"20 mars RETOUR","lat":36.80802541611737,"long":10.141694873309461},{"name":"BARDO-RETOUR","lat":36.80760020917849,"long":10.138980478113808},{"name":"MUNICIPALITE BARDO","lat":36.80716726883068,"long":10.133685797190992},{"name":"LYCEE SAOUEB-ALLER","lat":36.805972374932516,"long":10.128863185382215},{"name":"LYCEE SAOUEB-RETOUR","lat":36.80598955542186,"long":10.129893153971352},{"name":"LYCEE KHAZNADAR","lat":36.804967309596286,"long":10.124308794474928},{"name":"SAIDIA","lat":36.805116781634034,"long":10.12586420722073},{"name":"KHAZNADAR-ALLER","lat":36.80396652636916,"long":10.120918482280103},{"name":"KHAZNADAR-RETOUR","lat":36.80437800869043,"long":10.122667014729814},{"name":"L'ARTISANAT-ALLER","lat":36.80311176970226,"long":10.116707414126722},{"name":"L'ARTISANAT-RETOUR","lat":36.80298634727551,"long":10.117538631093339},{"name":"DENDEN-ALLER","lat":36.80109983261448,"long":10.109572872388526},{"name":"DENDEN-RETOUR","lat":36.80172867599831,"long":10.111112326121656},{"name":"OUED GUERIANA L71-RETOUR","lat":36.79924076266352,"long":10.106466471625026},{"name":"OUED GUERIANA L71-ALLER","lat":36.79845124554499,"long":10.10627898547682},{"name":"CITE EL ANTIT-ALLER","lat":36.79711961512397,"long":10.107351869082777},{"name":"CITE EL ANTIT-RETOUR","lat":36.797308622141884,"long":10.107400148845045},{"name":"Croisement Sidi Rezig","lat":36.76082074120958,"long":10.248183701187372},{"name":"Lycée Sidi Rezig","lat":36.76332253948002,"long":10.246172295883298},{"name":"Sidi Rezig (section) Aller","lat":36.76533260814581,"long":10.244568083435297},{"name":"Sidi Rezig (section)","lat":36.76516071190017,"long":10.243591759353876},{"name":"ZAHROUNI-ALLER","lat":36.79227829913832,"long":10.107850759959547},{"name":"Usine de carton","lat":36.75943634687161,"long":10.24825880303979},{"name":"ZAHROUNI-RETOUR","lat":36.79242049301916,"long":10.107966229352314},{"name":"2ème arrêt Ibn Jazzar","lat":36.772134656282034,"long":10.2305673295632},{"name":"Meublatex","lat":36.730360981339565,"long":10.210579130798578},{"name":"Al Mourouj 3","lat":36.728676755645076,"long":10.210477458313107},{"name":"Jardin d enfants  Al Mourouj 3","lat":36.724313558587596,"long":10.211190171539783},{"name":" Foyer Universitaire Mourouj 3","lat":36.72274213692874,"long":10.212842915207148},{"name":"MOSQUE ZAHROUNI-RETOUR","lat":36.790412141458404,"long":10.109379753339454},{"name":"LYCEE ZAHROUNI","lat":36.78501832929188,"long":10.108813807237311},{"name":"STEG ZAHROUNI","lat":36.78431588139881,"long":10.109377071130439},{"name":"14 Janvier","lat":36.71685520077652,"long":10.213301950134337},{"name":"RABATTEMENT SLIMEN KAHIA","lat":36.803863870267655,"long":10.098591908681556},{"name":"OUED GUERIANA L23","lat":36.798528994922904,"long":10.105147227677662},{"name":"ABDELMOULA-ALLER","lat":36.795989858905244,"long":10.100555151439039},{"name":"PEPINIERE-ALLER","lat":36.79276287456374,"long":10.094417989384965},{"name":"Cité El Faouz","lat":36.71607858910582,"long":10.208819853141904},{"name":"Jardin d enfants Mourouj 5","lat":36.71050168402444,"long":10.206211991608143},{"name":"PEPINIERE-RETOUR","lat":36.79284535462966,"long":10.094901055163064},{"name":"Cité AFH","lat":36.70860313655378,"long":10.20402381196618},{"name":"GARDE NATIONALE AGBA-ALLER","lat":36.790446509447264,"long":10.090977117288276},{"name":"Av El Borhene","lat":36.7096071806333,"long":10.200354047119617},{"name":"Mourouj 5","lat":36.710192049413585,"long":10.201255269348621},{"name":"GARDE NATIONALE AGBA-RETOUR","lat":36.790472285371436,"long":10.091309711369831},{"name":"AGBA SUPERIEUR-ALLER","lat":36.78955508556756,"long":10.088412925633747},{"name":"AGBA SUPERIEUR-RETOUR","lat":36.78933126134643,"long":10.088442295527784},{"name":"CANAL AGBA-ALLER","lat":36.78847204531257,"long":10.085432857013075},{"name":"CANAL AGBA-RETOUR","lat":36.78843338043003,"long":10.0857976374391},{"name":"BEN MAHMOUD-ALLER","lat":36.78592484278642,"long":10.0814901440026},{"name":"Bir Tarraz","lat":36.76259135428246,"long":10.273847077041864},{"name":"BEN MAHMOUD-RETOUR","lat":36.78578091837428,"long":10.081704720723792},{"name":"Eloulija","lat":36.75115376779486,"long":10.284059420228004},{"name":"CITE ELWAHA-ALLER","lat":36.78346949824781,"long":10.076031848657294},{"name":"CITE ELWAHA-RETOUR","lat":36.783282605284114,"long":10.076165959271748},{"name":"Cité 18 janvier","lat":36.74438421381071,"long":10.295154545456171},{"name":"CROISEMENT Z INDUSTRIEL-ALLER","lat":36.77994423349774,"long":10.075691208112403},{"name":"CROISEMENT Z INDUSTRIEL-RETOUR","lat":36.78034338493343,"long":10.075868099665968},{"name":"TERMINUS ELWAHA","lat":36.77787196386433,"long":10.077251851689653},{"name":"Lycée Ezzahra (section)","lat":36.735949946314875,"long":10.315474960952997},{"name":"Lycée Hammam Lif","lat":36.73438507713302,"long":10.320764277130365},{"name":"Bou Kornine","lat":36.73182274992987,"long":10.327577088028193},{"name":"Chalet Vert","lat":36.730335185173374,"long":10.329744312912226},{"name":"SONEDE AGBA-ALLER","lat":36.78222783313274,"long":10.069935187566443},{"name":"Centre Hammam Lif","lat":36.7277652658575,"long":10.334867583587766},{"name":"SONEDE AGBA-RETOUR","lat":36.78213975563698,"long":10.070195361840888},{"name":"theater ","lat":36.72634298965426,"long":10.338090844452381},{"name":"GHDIR ELGOLLAH-ALLER","lat":36.780111370408655,"long":10.063299268222181},{"name":"GHDIR ELGOLLAH-RETOUR","lat":36.77994380381327,"long":10.063653320139565},{"name":"CITE JABRI-ALLER","lat":36.77651333573025,"long":10.058246120679541},{"name":"CITE JABRI-RETOUR","lat":36.77663966080839,"long":10.05881461474928},{"name":"CROISEMENT BEN YEDDER-ALLER","lat":36.774536793894,"long":10.054590269792243},{"name":"CROISEMENT BEN YEDDER-RETOUR","lat":36.774448707658415,"long":10.054871901738807},{"name":"TERMINUS L88A","lat":36.77093677860766,"long":10.046513735724147},{"name":"BIR DROUJ-ALLER","lat":36.77055089925394,"long":10.047297209239332},{"name":"BIR DROUJ-RETOUR","lat":36.770413391646535,"long":10.047356218165078},{"name":"HUILERIE LOUKIL-ALLER","lat":36.766722079647266,"long":10.039384692972817},{"name":"HUILERIE LOUKIL-RETOUR","lat":36.766670511748416,"long":10.039787023997633},{"name":"kiosque TOTAL","lat":36.741975765062556,"long":10.299788899719715},{"name":"STEG","lat":36.73923978897025,"long":10.30530964024365},{"name":"Société de chaussettes","lat":36.73737721676436,"long":10.310732815414667},{"name":"Oued Trabelsia","lat":36.72574017199593,"long":10.342356311157346},{"name":"Echaabia (section)","lat":36.72297432506911,"long":10.348766539245844},{"name":"Salle de Sport Ghlala","lat":36.72039125966122,"long":10.354050742462277},{"name":"Tahar sfar","lat":36.71742726530697,"long":10.359540071804076},{"name":"Foyer hammam Chatt","lat":36.71572456418866,"long":10.362992975860834},{"name":"Kiosque TOTAL H-Chatt","lat":36.71354548440662,"long":10.36895846016705},{"name":"Institut Sup Jeunesse Bir El Bey","lat":36.711579079107075,"long":10.374494288116693},{"name":"Bir El Bey","lat":36.710079363070406,"long":10.378609048202634},{"name":"Société Thalja","lat":36.70860313655378,"long":10.380953047424555},{"name":"Nouvelle Cité Borj Cedria","lat":36.70518611673666,"long":10.382143445312977},{"name":"Henkel","lat":36.70204131628424,"long":10.383238540962338},{"name":"SNA","lat":36.69835847627201,"long":10.384515020996332},{"name":"Borj Cedria village","lat":36.6955454716799,"long":10.387454722076654},{"name":"Termenus Borj Cedria ","lat":36.69593000101813,"long":10.38864063564688},{"name":"SETCAR","lat":36.73507924994512,"long":10.306526608765125},{"name":"Cité Miled","lat":36.733823903619864,"long":10.314337201416492},{"name":"Km 14 Croisement GP1/MC39","lat":36.73306207411914,"long":10.316408621147275},{"name":"Cité Bel Air","lat":36.732060351873244,"long":10.314337955787778},{"name":"Clinique Ezzahraoui","lat":36.73977999967077,"long":10.302273505367339},{"name":"Carrefour Ezzahra","lat":36.73751219750531,"long":10.300259166397154},{"name":"Croisement Ezzahra","lat":36.73644977611387,"long":10.299988137558103},{"name":"GAN","lat":36.72106661263895,"long":10.29654954560101},{"name":"Place 14  janvier (Boumhel)","lat":36.72433848340061,"long":10.300765978172421},{"name":"Av de l environnement","lat":36.72645232668645,"long":10.303872101940215},{"name":"Cité SPROLS Boumhel","lat":36.73055646762975,"long":10.309530682861805},{"name":"El Bahri","lat":36.718525072370085,"long":10.29204879887402},{"name":"El Khelij","lat":36.71726172867631,"long":10.288673825562},{"name":"Huilerie bayrem","lat":36.71573088007736,"long":10.2821721509099},{"name":"Pont autoroute sud","lat":36.716042776828324,"long":10.275059435516596},{"name":"Boujerdga ","lat":36.714486102449285,"long":10.264330599457026},{"name":"Boujerdga 75 26A 37","lat":36.714891467042634,"long":10.264674173668027},{"name":"Touati","lat":36.71320233300458,"long":10.265177674591541},{"name":"Dziri","lat":36.7065795534292,"long":10.269319005310535},{"name":"Boucherie Ezzaouia","lat":36.70158601953323,"long":10.273073092103004},{"name":"Ezzaouia mornag","lat":36.699086509933096,"long":10.274957763031125},{"name":"Bir Ezzanga","lat":36.695620610133986,"long":10.27695793658495},{"name":"SOMAG","lat":36.69249148166603,"long":10.27895400300622},{"name":"Doukali","lat":36.688342155564555,"long":10.282060378231108},{"name":"Cité jaber","lat":36.6842471192443,"long":10.285047478973866},{"name":"Medina jadida 1","lat":36.749954964766964,"long":10.253451559692621},{"name":"Usine de Tomate","lat":36.74133847867883,"long":10.273052640259266},{"name":"Oued Meliane L(26A-B-82)","lat":36.7398940865796,"long":10.278545804321766},{"name":"ONCV Borj Louzir","lat":36.73894833893257,"long":10.285755582153797},{"name":"Comptoire Sfaxien","lat":36.73780911063879,"long":10.294839825946838},{"name":"Poulina","lat":36.73705865590091,"long":10.297660105861723},{"name":"GP1 Kiosque ESSO","lat":36.7382198097529,"long":10.291753504425287},{"name":"Boujerdga retour 26","lat":36.71539774983538,"long":10.263965819031},{"name":"Frigo Hadj Saleh","lat":36.71849927222802,"long":10.261160479858518},{"name":"Pont oued miliyen","lat":36.72360208948964,"long":10.255833361297846},{"name":"Cité SNIT Boumhel","lat":36.71910214672,"long":10.295647569000721},{"name":"Cité Echikh 1","lat":36.682683482235554,"long":10.293985102325678},{"name":"Cité Echikh 2","lat":36.68498933491968,"long":10.299553368240595},{"name":"Carrière Mornag","lat":36.68946089499334,"long":10.306548066437244},{"name":"EP Chala","lat":36.69331736135487,"long":10.304091665893793},{"name":"Le Canal","lat":36.69906439953204,"long":10.300025437027216},{"name":"Espace chrif","lat":36.702136541846706,"long":10.295002833008766},{"name":"Espace Ranine","lat":36.70600554336114,"long":10.295229647308588},{"name":"STEG Nassen","lat":36.715405140800364,"long":10.224288068711758},{"name":"Mourouj 3","lat":36.72045515373588,"long":10.223093312233686},{"name":"Cité belile","lat":36.709693191027235,"long":10.227562375366688},{"name":"Nassen 1","lat":36.703104516098776,"long":10.232862420380116},{"name":"Nassen 2","lat":36.701626845145334,"long":10.231980853714049},{"name":"Cité Mekki","lat":36.69564181421935,"long":10.228367918170989},{"name":"Ferme Amor Touil","lat":36.690712395917174,"long":10.225308313965797},{"name":"Cité Bounaouara","lat":36.68429334829161,"long":10.221706714946777},{"name":"Textiles","lat":36.675801642978335,"long":10.216737859882414},{"name":"Café Rebai","lat":36.67244998999548,"long":10.214715474285185},{"name":"Ouileri Sadira","lat":36.66142536578282,"long":10.205638753250241},{"name":"Ferme Vignoble","lat":36.65746085766898,"long":10.20231792703271},{"name":"Oued Meliane","lat":36.65342412629002,"long":10.199871752411127},{"name":"Cité Braiek","lat":36.648397282204286,"long":10.198337528854609},{"name":"Khélidia Gare","lat":36.64598387429001,"long":10.194775806739926},{"name":"Khélidia","lat":36.64386465726668,"long":10.192163460887969},{"name":"Ferme Herbeg","lat":36.63753105442714,"long":10.187649365980178},{"name":"Gazdalli","lat":36.627563361267214,"long":10.180428890744224},{"name":"Barrouta","lat":36.62381783350622,"long":10.177920553833246},{"name":"Entrée Ferch Annabi 1","lat":36.61943543277415,"long":10.177684519439936},{"name":"Ferch Annabi (terminus)","lat":36.61735097373655,"long":10.177705977112055},{"name":"LYCEE CHEBI-ALLER","lat":36.76131585617782,"long":10.027513236855157},{"name":"piscine olympique rades","lat":36.749353742885276,"long":10.265392754226923},{"name":"LYCEE CHEBI-RETOUR","lat":36.76125998707975,"long":10.027663439577736},{"name":"MOSQUE MORNAGUIA-ALLER","lat":36.75876775117919,"long":10.019466742742225},{"name":"Stade d'athlètisme de Radés","lat":36.75286913168507,"long":10.272902939468622},{"name":"MOSQUE MORNAGUIA-RETOUR","lat":36.75837106597883,"long":10.018758236838039},{"name":"SIDI AMARA-ALLER","lat":36.753644639234885,"long":9.971275494026486},{"name":"SIDI AMARA-RETOUR","lat":36.75353675798726,"long":9.971149295306532},{"name":"SIDI ALI HATTAB-ALLER","lat":36.756816539282745,"long":9.9681507198693},{"name":"SIDI ALI HATTAB-RETOUR","lat":36.75659949597968,"long":9.968196317422553},{"name":"stade rades","lat":36.74367803529237,"long":10.266851373016834},{"name":"cite Olympique rades","lat":36.75463133231,"long":10.275842640548944},{"name":"ECOLE HATTAB-ALLER","lat":36.7613055419,"long":9.963033065068885},{"name":"terminus 714","lat":36.75623876782128,"long":10.277516338974237},{"name":"ECOLE HATTAB-RETOUR","lat":36.76110527226021,"long":9.963140219188062},{"name":"JNAIEH-ALLER","lat":36.76831637007658,"long":9.95747002933058},{"name":"JNAIEH-RETOUR","lat":36.7682308551291,"long":9.957349464166327},{"name":"AVENION-ALLER","lat":36.77498968429169,"long":9.952717155283608},{"name":"AVENION-RETOUR","lat":36.77481351276007,"long":9.952599137759535},{"name":"KOCHBATI+ALLER","lat":36.77705623128242,"long":9.951306447255774},{"name":"KOCHBATI-RETOUR","lat":36.77696019896203,"long":9.951212569940253},{"name":"ALI BEN MBAREK-ALLER","lat":36.781228900856945,"long":9.948707386720343},{"name":"ALI BEN MBAREK-RETOUR","lat":36.78118550606396,"long":9.948565095401136},{"name":"ENTREE BASSATINE-ALLER","lat":36.78303728069876,"long":9.947572678065626},{"name":"ENTREE BASSATINE-RETOUR","lat":36.782934166814265,"long":9.947395652270643},{"name":"CITE DES IMMEUBLES-ALLER","lat":36.78392706185576,"long":9.942605361211463},{"name":"CITE DES IMMEUBLES-RETOUR","lat":36.78385402371661,"long":9.942718013990088},{"name":"TEBALTECH-ALLER","lat":36.77919619489778,"long":9.92452177379164},{"name":"TEBALTECH-RETOUR","lat":36.77910596566895,"long":9.924607604480116},{"name":"CITE TEBALTECH-ALLER","lat":36.776496148629576,"long":9.922496840226813},{"name":"CITE TEBALTECH-RETOUR","lat":36.77643599371414,"long":9.92256121324317},{"name":"AHMED LAOUINI-ALLER","lat":36.764061990289015,"long":9.925857514208474},{"name":"AHMED LAOUINI-RETOUR","lat":36.764071015007,"long":9.925999805363972},{"name":"KSAR HDID","lat":36.755874868163595,"long":9.92746683961741},{"name":"MARCHE MORNAGUIA-ALLER","lat":36.763791249041816,"long":10.011264413333265},{"name":"MARCHE MORNAGUIA-RETOUR","lat":36.76366232430244,"long":10.011339515185682},{"name":"CITE ENNACER-ALLER","lat":36.766132484549615,"long":10.02686923755391},{"name":"CITE ENNACER-RETOUR","lat":36.76602934792426,"long":10.027255475652055},{"name":"BAB ALIOUA","lat":36.78858804010526,"long":10.180340141123452},{"name":"Lycee Mghira","lat":36.716144771225686,"long":10.157631821930408},{"name":" CENTRE FORMATION MGHIRA","lat":36.71314985563332,"long":10.167867885902524},{"name":"Promed tech","lat":36.71594817320826,"long":10.171644184738398},{"name":"Garde National Z.I Mghira","lat":36.71746704107741,"long":10.17351144226268},{"name":"Citroen","lat":36.71602083928051,"long":10.170805030502379},{"name":"Mecaprotec Aerolia","lat":36.718039168239876,"long":10.1684579718858},{"name":"Aerolia 1","lat":36.72113084207968,"long":10.164820896461606},{"name":"Aerolia termenus","lat":36.72222787397827,"long":10.167741947807372},{"name":"Protection Civile","lat":36.71700908096057,"long":10.17674618633464},{"name":"BTK","lat":36.71622294668167,"long":10.181284421123564},{"name":"Bontaze","lat":36.7215553865825,"long":10.183885786682367},{"name":"Bioprotection","lat":36.724119198514785,"long":10.185028659179807},{"name":"ZONE INDUSTRIELLE-ALLER","lat":36.73624284512041,"long":9.945051135728136},{"name":"ZONE INDUSTRIELLE-RETOUR","lat":36.73617062148471,"long":9.945346444910683},{"name":"Sealatelec termenus85","lat":36.72252398961914,"long":10.186863290145993},{"name":" Amen Banque","lat":36.715260143375986,"long":10.182233545929193},{"name":"AEROPORT BORJ AMRI-ALLER","lat":36.73079663967099,"long":9.934285014605848},{"name":"AEROPORT BORJ AMRI-RETOUR","lat":36.73109243329409,"long":9.935309350621537},{"name":"BORJ KHALSI-ALLER","lat":36.72697013529874,"long":9.925900429225294},{"name":"BORJ KHALSI-RETOUR","lat":36.727033768562364,"long":9.926479517889675},{"name":"café Sabiha","lat":36.69893482842169,"long":10.16860792413354},{"name":" Chebedda 25 A","lat":36.693245379518096,"long":10.207628952339292},{"name":"CITE HAFSIA-ALLER","lat":36.733757965021915,"long":9.916952311468776},{"name":"Tunisie Porcelaine","lat":36.69410996362219,"long":10.210101949051023},{"name":"CITE HAFSIA-RETOUR","lat":36.73360319474262,"long":9.916823566090898},{"name":"BOUHALLEB-ALLER","lat":36.72291555245994,"long":9.915906518763222},{"name":"BOUHALLEB-RETOUR","lat":36.72285965533641,"long":9.916115731066384},{"name":"Centre de Formation Agricole Naasen","lat":36.69581094263369,"long":10.214580483734608},{"name":"CIMETIERE ANGLAIS-ALLER","lat":36.721973895487686,"long":9.911035627192177},{"name":"Lycée Nassen","lat":36.69938214352963,"long":10.222112629562616},{"name":"CIMETIERE ANGLAIS-RETOUR","lat":36.721814801617185,"long":9.911110728717176},{"name":"PTT Nassen","lat":36.704079937415116,"long":10.23213361389935},{"name":"RELAIS BORJ AMRI-ALLER","lat":36.718198552068394,"long":9.894448846316664},{"name":"Nassen 1 Section 85","lat":36.70917081079202,"long":10.241081211715937},{"name":"RELAIS BORJ AMRI-RETOUR","lat":36.717837347755975,"long":9.893424242472975},{"name":"MOSQUE BORJ AMRI-ALLER","lat":36.716353812231645,"long":9.88879474971327},{"name":"MOSQUE BORJ AMRI-RETOUR","lat":36.71619470672074,"long":9.888789385622658},{"name":"CAFE MEDINA-ALLER","lat":36.71312433590799,"long":9.883205026126234},{"name":"CAFE MEDINA-RETOUR","lat":36.7126728003639,"long":9.882368176913587},{"name":"ALI Derghouth","lat":36.796362159502955,"long":10.189239475876093},{"name":"CITE EL INTILAKA BA","lat":36.718855595505616,"long":9.878221213293727},{"name":"KIOSQUE SHELL-ALLER","lat":36.71142568859018,"long":9.878387779062905},{"name":"STEG Khlidia","lat":36.63371943020876,"long":10.198884699493647},{"name":"Bir Jeddid 1 ","lat":36.638335144007236,"long":10.201357947662473},{"name":"KIOSQUE SHELL-RETOUR","lat":36.711219268137214,"long":9.878189295268385},{"name":"Bir Jedid 2","lat":36.638411481721505,"long":10.203390810638666},{"name":"Cité Salem","lat":36.63840458779005,"long":10.229966514743865},{"name":"Kongel","lat":36.63187696855338,"long":10.228303167968988},{"name":"Kchachma","lat":36.61848080273883,"long":10.220930948853493},{"name":"Elkharouba","lat":36.62615989123889,"long":10.210235808044672},{"name":"Terminus 82 75 85","lat":36.72513247890512,"long":10.306125157512724},{"name":"Cafe elahbeb","lat":36.721582109494335,"long":10.295614984352142},{"name":"Khlige Boumhal","lat":36.723172114412776,"long":10.294253323227167},{"name":"Mosquée  Amine","lat":36.72442763488935,"long":10.295047257095575},{"name":"jardin d’enfant elamel Boumhal ","lat":36.72571753181112,"long":10.298104975372553},{"name":"Boulangerie el allgua","lat":36.73050487542005,"long":10.298351235687733},{"name":"CTTM","lat":36.73544037316831,"long":10.295196957886219},{"name":"Cite el eskan 1","lat":36.74647715470726,"long":10.224859588779509},{"name":"Cite el eskan 2","lat":36.74619819100934,"long":10.221554730087519},{"name":"Boulangerie Ougi","lat":36.74866319156449,"long":10.22076029330492},{"name":"UGTT Ben Arous","lat":36.75081575424895,"long":10.223507629707456},{"name":"Cité Snit Mornag L21","lat":36.678194033296506,"long":10.2841887739487},{"name":"Ferme Bahri","lat":36.67591811056341,"long":10.277558751404285},{"name":"Sidi Saad","lat":36.67037641102157,"long":10.268525071442127},{"name":"La coopérative","lat":36.66814669748094,"long":10.265296446159482},{"name":"Mosquée El Ayeb","lat":36.66446337713071,"long":10.25936339981854},{"name":"Ben Yousef","lat":36.65849542429166,"long":10.250370875000954},{"name":"Ouzra (section)","lat":36.65535214379896,"long":10.244600269943476},{"name":"Transformateur ouzra","lat":36.64830891677582,"long":10.247582383453846},{"name":"Office de la vigne","lat":36.64637984865165,"long":10.245212065055966},{"name":"Cité la Borte","lat":36.64356810413499,"long":10.240694973617792},{"name":"Canal L21","lat":36.64002767125778,"long":10.236638970673084},{"name":"Sondage 1","lat":36.63961444649775,"long":10.230115838348866},{"name":"Natacha","lat":36.638576196056114,"long":10.22089515812695},{"name":"L'ondor","lat":36.637737689486315,"long":10.214945264160633},{"name":"Av Bayrem Ettounsi 2","lat":36.63878799032819,"long":10.21275658160448},{"name":"EP Bir Jedid","lat":36.640836896658826,"long":10.209559388458729},{"name":"Cité Gouider","lat":36.644687191959726,"long":10.203508827835321},{"name":"Lycée khelidia","lat":36.64719216808025,"long":10.201330874115229},{"name":"Garde Nationale Mornag","lat":36.67958595938531,"long":10.29245087876916},{"name":"Lycée Mornag","lat":36.678579237602456,"long":10.293716881424189},{"name":"Cité Abaab","lat":36.67556285866821,"long":10.29772984329611},{"name":"Collège mahmoud al-messaadi Morneg","lat":36.672258524023896,"long":10.303402715362608},{"name":"Coopérative Errissala","lat":36.66965267722389,"long":10.307675348594785},{"name":"Errissala","lat":36.662321303825,"long":10.322104878723621},{"name":"Maallah","lat":36.65518860847341,"long":10.317588541656733},{"name":"El Houemed 1","lat":36.65007264195348,"long":10.312707172706723},{"name":"El Houemed 2","lat":36.64439450902183,"long":10.307138655334711},{"name":"Ancienne gare Ahmed Zaied","lat":36.640436286758735,"long":10.303418808616698},{"name":"Croisement Ahmed Zaied L21A","lat":36.63739440157766,"long":10.302621312439442},{"name":"Nuiji","lat":36.631934949728056,"long":10.303286500275135},{"name":"Croisement Jebel Rassas","lat":36.598091281651854,"long":10.305067487061024},{"name":"Aviation Civile","lat":36.597292509034794,"long":10.312588904052973},{"name":"Jebel Rassas","lat":36.609244096283966,"long":10.319954501464963},{"name":"Erriahi","lat":36.62757830302236,"long":10.302235074341297},{"name":"Minoterie","lat":36.61867832265045,"long":10.303798466920853},{"name":"Ain Charchara","lat":36.60942125306095,"long":10.30315674841404},{"name":"Km30-ALLER","lat":36.704802756147295,"long":9.855562181328423},{"name":"Km30-RETOUR","lat":36.70467287183511,"long":9.855797945929226},{"name":"MESSAADINE-ALLER","lat":36.700617972342336,"long":9.842987984156935},{"name":"MESSAADINE-RETOUR","lat":36.70058786516043,"long":9.8433420357469},{"name":"FURNA-ALLER","lat":36.69342202048768,"long":9.83184608790907},{"name":"FURNA-RETOUR","lat":36.693878400644316,"long":9.83237193524019},{"name":"ENTREE BORJ ENNOUR-ALLER","lat":36.68040307759673,"long":9.81972531961219},{"name":"ENTREE BORJ ENNOUR-RETOUR","lat":36.68042028618594,"long":9.820409282910987},{"name":"FRINECH","lat":36.68963710120802,"long":9.810761377084418},{"name":"EPICIER JILANI-ALLER","lat":36.666309644678684,"long":9.800442784762708},{"name":"EPICIER JILANI-RETOUR","lat":36.666176253296655,"long":9.800485700106947},{"name":"Mourouj 5 Ligne81","lat":36.716832793135325,"long":10.19953865557909},{"name":"Lycée el mourouj 6","lat":36.71906774678712,"long":10.203143544495106},{"name":"Lycée libre ebnrachik ","lat":36.72107336479502,"long":10.206561558879912},{"name":"Foyer Universitaire Mourouj 3 (81)","lat":36.72246809221066,"long":10.209050523117185},{"name":"ENTREE GRIAAT-ALLER","lat":36.65818956109473,"long":9.78444072577986},{"name":"Mosque El Haramain El Mourouj 3","lat":36.72762338204006,"long":10.207693325355649},{"name":"Pharmacie de nuit El mourouj 1","lat":36.73469145706263,"long":10.210960255935788},{"name":" lycée mourouj 1","lat":36.738233848412975,"long":10.212515937164426},{"name":"ENTREE GRIAAT-RETOUR","lat":36.65812974373387,"long":9.785352811741177},{"name":"GRIAAT","lat":36.660804261094334,"long":9.78436575833257},{"name":"ROUTE SIDI MEDIEN-ALLER","lat":36.63163301581433,"long":9.755671353195794},{"name":"ROUTE SIDI MEDIEN-RETOUR","lat":36.63180521169199,"long":9.756030768221535},{"name":"SIDI MEDIEN","lat":36.62509276223387,"long":9.746685683203395},{"name":"SOGEFRIPE-ALLER","lat":36.75371727632442,"long":10.010942548578896},{"name":"SOGEFRIPE-RETOUR","lat":36.753743064632985,"long":10.011242955661146},{"name":"20 MARS L23C/D-ALLER","lat":36.74895488680143,"long":10.00537964675459},{"name":"20 MARS L23C/D-RETOUR","lat":36.748937693458146,"long":10.005658596819558},{"name":"POULAILLER HMAIEM-ALLER","lat":36.71801795038694,"long":9.991732567286817},{"name":"POULAILLER HMAIEM-RETOUR","lat":36.71799214981212,"long":9.991866677737562},{"name":"CROISEMENT HMAIEM-ALLER","lat":36.710548397900915,"long":9.986824124789564},{"name":"CROISEMENT HMAIEM-RETOUR","lat":36.71062150578078,"long":9.986985057657876},{"name":"HMAIEM-ALLER","lat":36.7016398891824,"long":9.996785983476002},{"name":"HMAIEM-RETOUR","lat":36.70161408333748,"long":9.996930822599097},{"name":"HMAIEM SUPERIEUR","lat":36.69697061655677,"long":9.987296193576185},{"name":"MERGUEB","lat":36.68379396222643,"long":10.01541084064229},{"name":"Prison Civile","lat":36.64842495522287,"long":10.3521733218804},{"name":"Cité Ousfane","lat":36.65955001435691,"long":10.32886404544115},{"name":"Croisement Prison Civile","lat":36.648225124198234,"long":10.350644085556269},{"name":"Douar Salem","lat":36.64583208806172,"long":10.356952641159296},{"name":"Tarhouna","lat":36.64538217497628,"long":10.360385365784168},{"name":"Cité Snit Mornag","lat":36.6772627353922,"long":10.288760159164667},{"name":"Cité Meziane","lat":36.674448959060044,"long":10.289661381393671},{"name":"Sté Confection","lat":36.66920606318042,"long":10.291034169495106},{"name":"Canal L(21B)","lat":36.662269665803045,"long":10.29294390231371},{"name":"Allalga 1","lat":36.6575532470644,"long":10.295540280640125},{"name":"Allalga 2","lat":36.650615799573174,"long":10.300046391785145},{"name":"Croisement Ahmed Zaied","lat":36.642244143059976,"long":10.30264176428318},{"name":"ENTREE FEJJA-ALLER","lat":36.69159733365498,"long":9.946467342087999},{"name":"ENTREE FEJJA-RETOUR","lat":36.6922339570414,"long":9.94671410335286},{"name":"CITE FEJJA-ALLER","lat":36.68645339175821,"long":9.949536055391945},{"name":"CITE FEJJA-RETOUR","lat":36.68652652262237,"long":9.949755996203749},{"name":"ECOLE FEJJA-ALLER","lat":36.682035298268744,"long":9.95264741784922},{"name":"ECOLE FEJJA-RETOUR","lat":36.68246980551074,"long":9.952406018710462},{"name":"CROISEMENT ENFAIEDH-ALLER","lat":36.65630464968521,"long":9.976583450770704},{"name":"CROISEMENT ENFAIEDH-RETOUR","lat":36.65648152323487,"long":9.976658687028248},{"name":"OUED HALOUEN-ALLER","lat":36.64313824623786,"long":9.964760004950222},{"name":"OUED HALOUEN-RETOUR","lat":36.64332418920066,"long":9.965125054186501},{"name":"ENFAIEDH-ALLER","lat":36.631749248395806,"long":9.954846828914015},{"name":"ENFAIEDH-RETOUR","lat":36.63172772394935,"long":9.955002397364296},{"name":"OUED LABIEDH-ALLER","lat":36.62762937236871,"long":9.941505521273939},{"name":"OUED LABIEDH-RETOUR","lat":36.627582016125835,"long":9.9417147335771},{"name":"ROUTE SIDI HMIDA-ALLER","lat":36.628929503256394,"long":9.920578926539747},{"name":"ROUTE SIDI HMIDA-RETOUR","lat":36.628800352156105,"long":9.920707672572462},{"name":"SIDI HMIDA","lat":36.62732370919259,"long":9.90678164336714},{"name":"PRISON CIVILE BORJ AMRI-ALLER","lat":36.690290517576024,"long":9.940818877075799},{"name":"PRISON CIVILE BORJ AMRI-RETOUR","lat":36.6901778151813,"long":9.94098490489705},{"name":"POULAILLER MENZEL HBIB-ALLER","lat":36.68607052904017,"long":9.93050309989485},{"name":"POULAILLER MENZEL HBIB-RETOUR","lat":36.68614366026842,"long":9.931012719935097},{"name":"STEG MENZEL HBIB-ALLER","lat":36.68045556390161,"long":9.922456204367336},{"name":"STEG MENZEL HBIB-RETOUR","lat":36.680499445771474,"long":9.922660321062722},{"name":"CROISEMENT BORJ AMRI-ALLER","lat":36.672931590704394,"long":9.911818831897108},{"name":"CROISEMENT BORJ AMRI-RETOUR","lat":36.6729272880648,"long":9.9120334086183},{"name":"MENZEL HBIB-ALLER","lat":36.662195920140306,"long":9.898676007724134},{"name":"MENZEL HBIB-RETOUR","lat":36.66209264389349,"long":9.898799389666237},{"name":"CROISEMENT DRIJET-ALLER","lat":36.65558854318767,"long":9.86824916290061},{"name":"CROISEMENT DRIJET-RETOUR","lat":36.655560570117565,"long":9.868361815842945},{"name":"ROUTE DRIJET-ALLER","lat":36.643466228884066,"long":9.859070509655794},{"name":"ROUTE DRIJET-RETOUR","lat":36.64336292725046,"long":9.859161704516737},{"name":"DRIJET","lat":36.62393119779051,"long":9.845273226237623},{"name":"CAFE BOUTOFFAHA-ALLER","lat":36.80199326992685,"long":10.099879369172413},{"name":"CAFE BOUTOFFAHA-RETOUR","lat":36.8019524639978,"long":10.100051030549366},{"name":"CAFE Z PLUS-ALLER","lat":36.80147567885263,"long":10.093675419557258},{"name":"CAFE Z PLUS-RETOUR","lat":36.801398362062905,"long":10.09373711052831},{"name":"CITE BEN YOUNES-ALLER","lat":36.79830992205418,"long":10.08851753162162},{"name":"CITE BEN YOUNES-RETOUR","lat":36.79827985314737,"long":10.08861677351888},{"name":"GARDE NATIONALE BEN YOUNES","lat":36.79648643827476,"long":10.089292690190632},{"name":"TERMINUS CITE BEN YOUNES","lat":36.795783665858124,"long":10.089370339846937},{"name":"ONAS MANOUBA-ALLER","lat":36.806116691080625,"long":10.094874366986915},{"name":"ONAS MANOUBA-RETOUR","lat":36.80595777153974,"long":10.094946786794026},{"name":"POSTE POLICE MANOUBA-ALLER","lat":36.80839521540995,"long":10.09235577288564},{"name":"POSTE POLICE MANOUBA-RETOUR","lat":36.80839092042293,"long":10.092184111344977},{"name":"HEDI CHAKER MANNOUBA ALLER","lat":36.80792663087749,"long":10.08930060241255},{"name":"HEDI CHAKER MANOUBA RETOUR","lat":36.80780207539338,"long":10.089338153666176},{"name":"MUNICIPALITE MANNOUBA-ALLER","lat":36.80680991930213,"long":10.08704754684004},{"name":"MUNICIPALITE MANNOUBA-RETOUR","lat":36.806750217750874,"long":10.087163016069098},{"name":"CITE HASSEN BELKHOUJA1-ALLER","lat":36.80490760664115,"long":10.087254211339314},{"name":"CITE HASSEN BELKHOUJA2-ALLER","lat":36.80320240015196,"long":10.088340505990345},{"name":"MARCHE MANOUBA-ALLER","lat":36.80070637329307,"long":10.08356603953871},{"name":"MARCHE MANOUBA-RETOUR","lat":36.80061616945804,"long":10.083603590792336},{"name":"TERMINUS L91","lat":36.79982580750276,"long":10.077209204173414},{"name":"CITE HASSEN BELKHOUJA2-RETOUR","lat":36.80313797095199,"long":10.088431701096852},{"name":"CITE HASSEN BELKHOUJA1-RETOUR","lat":36.80507297095785,"long":10.089668199289008},{"name":"DAR MOCENNINE-ALLER","lat":36.80959307786379,"long":10.09101185209147},{"name":"DAR MOCENNINE-RETOUR","lat":36.809451345381895,"long":10.090958207911171},{"name":"GOUVERNORAT MANNOUBA-ALLER","lat":36.811422691802115,"long":10.088544219797768},{"name":"GOUVERNORAT MANOUBA-RETOUR","lat":36.811435576252286,"long":10.08780392978224},{"name":"HOPITAL ERRAZI-ALLER","lat":36.81128525753218,"long":10.086387723749795},{"name":"HOPITAL ERRAZI-RETOUR","lat":36.81126807823109,"long":10.086216062372841},{"name":"CITE ORANGERS 1-ALLER","lat":36.81508951927751,"long":10.083431660605129},{"name":"CITE ORANGERS 1-RETOUR","lat":36.815013074685226,"long":10.083195895022072},{"name":"CITE ORANGERS 2-ALLER","lat":36.816778141368054,"long":10.081205695605604},{"name":"CITE ORANGERS 2-RETOUR","lat":36.816726607151224,"long":10.081044763392129},{"name":"CHEMIN DE FER-ALLER","lat":36.8190026686522,"long":10.079349607294716},{"name":"CHEMIN DE FER-RETOUR","lat":36.81883089278707,"long":10.079354971712746},{"name":"TERMINUS L92","lat":36.82140319602621,"long":10.076721042132704},{"name":"TERMINUS ZAHROUNI ( L : 32+65+515B+515A )","lat":36.79244926650101,"long":10.107619654354494},{"name":"TERMINUS ZAHROUNI ( L : 32+65+515B+515A )","lat":36.79244926650101,"long":10.107619654354494},{"name":"TERMINUS ZAHROUNI ( L : 32+65+515B+515A )","lat":36.79244926650101,"long":10.107619654354494},{"name":"CROISEMENT JAYARA  ALLER","lat":36.77512131138289,"long":10.08733695725823},{"name":"BORJ CHAKIR 1 RETOUR","lat":36.77042161888252,"long":10.080495145220993},{"name":"BORJ CHAKIR 1 ALLER","lat":36.770346419321676,"long":10.080218877651532},{"name":"MOSQUEE BORJ CHAKIR ALLER","lat":36.76902166834764,"long":10.077241592125574},{"name":"MOSQUEE BORJ CHAKIR RETOUR","lat":36.76888630659878,"long":10.077200017885843},{"name":"CIMITIERE BORJ CHAKIR ALLER","lat":36.76123019030257,"long":10.066694142005872},{"name":"CIMITIERE BORJ CHAKIR RETOUR","lat":36.761199462128346,"long":10.066807597941079},{"name":"TERMINUS BIR JAZZAR  L 32 B","lat":36.748688945761145,"long":10.055372200922648},{"name":"TERMINUS TUNIS MARINE BUS","lat":36.80038414467841,"long":10.19038769609324},{"name":"RUE DE LA TURQUIE ALLER","lat":36.79910326176114,"long":10.186369311113594},{"name":"terminus 3D","lat":36.833433336300594,"long":10.106369946151972},{"name":"ABDELMOULA-RETOUR","lat":36.795860988381406,"long":10.100828736758558},{"name":"GORJANI ALLER","lat":36.78799375321507,"long":10.167513582855463},{"name":"ARRET ESSAYDA ALLER","lat":36.78528391170791,"long":10.171172350710549},{"name":"ESSAYDA RETOUR","lat":36.785473556548204,"long":10.170743331345875},{"name":"FACULTE 9 AVRIL RETOUR","lat":36.79520184772798,"long":10.163549646686079},{"name":"FACULTE 9 AVRIL ALLER","lat":36.7951389511184,"long":10.163313478296914},{"name":"DARGHOUTH BACHA RETOUR","lat":36.79770651982781,"long":10.162702135758082},{"name":"LA RABTA ALLER","lat":36.799937131710514,"long":10.154692858850467},{"name":"CITE ERRAOUDHA ALLER","lat":36.80177435011075,"long":10.15021866573079},{"name":"CITE ERRAOUDHA RETOUR","lat":36.80205476486928,"long":10.149210423296608},{"name":"CASERNE BOUCHOUCHA ALLER","lat":36.80390234837204,"long":10.14529185000356},{"name":"CASERNE BOUCHOUCHA RETOUR","lat":36.80397354197668,"long":10.14472550166829},{"name":"BOUCHOUCHA - BARDO ALLER","lat":36.805880280355204,"long":10.140758916768391},{"name":"BOUCHOUCHA - BARDO RETOUR","lat":36.805588533283306,"long":10.140809476506547},{"name":"CNAM-BARDO ALLER","lat":36.80688748124398,"long":10.138377115163166},{"name":"SAINT CLEMENT ALLER","lat":36.810484841290226,"long":10.126228988956427},{"name":"BOURTAL RETOUR","lat":36.81104374481973,"long":10.118772446585353},{"name":"CHAMP DE COURSE KSAR SAID RETOUR","lat":36.81279666312419,"long":10.11372479802958},{"name":"HOPITAL KASSAB RETOUR","lat":36.815361224261345,"long":10.101562859199475},{"name":"BOUDRIA RETOUR","lat":36.816171037582784,"long":10.095523060153937},{"name":"BOUDRIA ALLER","lat":36.816188215783605,"long":10.096113145482377},{"name":"IBN JAZZAR MANNOUBA ALLER","lat":36.812809547277574,"long":10.089279145395267},{"name":"IBN JAZZAR MANNOUBA RETOUR","lat":36.813685669011065,"long":10.090893834894814},{"name":"SIDI AMOR MANNOUBA ALLER","lat":36.80728695776512,"long":10.082873226783704},{"name":"SIDI AMOR MANNOUBA RETOUR","lat":36.80710899928811,"long":10.082401692998246},{"name":"PALAIS EL WARDA ALLER","lat":36.80929701435099,"long":10.07392537620035},{"name":"PALAIS EL WARDA RETOUR","lat":36.80867238482662,"long":10.075900018346147},{"name":"FACULTE DES LETTRES MANNOUBA ALLER","lat":36.81108368649129,"long":10.065900206827791},{"name":"FACULTE DES LETTRES MANNOUBA RETOUR","lat":36.811203942331865,"long":10.064269423746737},{"name":"FACULTE DES LETTRES MANNOUBA RETOUR","lat":36.811203942331865,"long":10.064269423746737},{"name":"RESTAURANT UNIVERSITAIRE MANNOUBA ALLER","lat":36.81390104765377,"long":10.060471415781649},{"name":"RESTAURANT UNIVERSITAIRE MANNOUBA RETOUR","lat":36.8143243585124,"long":10.058229625356034},{"name":"RABATTEMENT KHAIREDDINE MANNOUBA","lat":36.81567043455746,"long":10.056458832405042},{"name":"RABATTEMENT KHAIREDDINE MANNOUBA","lat":36.81567043455746,"long":10.056458832405042},{"name":"CASERNE MANNOUBA RETOUR","lat":36.81337244236495,"long":10.098393291136745},{"name":"STEG MANNOUBA RETOUR","lat":36.80765568673612,"long":10.101381272143044},{"name":"CNSS MANNOUBA ALLER","lat":36.81001852434077,"long":10.105485185931684},{"name":"CNSS MANNOUBA RETOUR","lat":36.810022819236494,"long":10.105278655919392},{"name":"RUE INB RACHIK RETOUR","lat":36.807649083070686,"long":10.103178553299585},{"name":"RUE DE KEBILLI RETOUR","lat":36.80925878032491,"long":10.106167238193393},{"name":"RUE DE KEBILLI ALLER","lat":36.80923071111165,"long":10.106114231066385},{"name":"AVENUE ENVIRONNEMENT MANNOUBA ALLER","lat":36.80947766976603,"long":10.110781274726719},{"name":"AVENUE ENVIRONNEMENT MANNOUBA RETOUR","lat":36.8095775267349,"long":10.110901974157969},{"name":"TERMINUS L 4A CITEE EL AMAL MANNOUBA","lat":36.811702105003356,"long":10.111619398030598},{"name":"MONOPRIX MANNOUBA RETOUR","lat":36.811499479575154,"long":10.11338704076934},{"name":"MONOPRIX MANNOUBA ALLER","lat":36.81155209101356,"long":10.113479576980353},{"name":"TRIBUNAL TAAKIB","lat":36.79961525772865,"long":10.165126651263563},{"name":"MEFTEH SAADALLAH ALLER","lat":36.81064557682947,"long":10.1576166005907},{"name":"MEFTEH SAADALLAH RETOUR","lat":36.81118919667977,"long":10.15702074746514},{"name":"CIMITIERE SIDI YAHIA RETOUR","lat":36.816240967116215,"long":10.158839553660073},{"name":"CIMITIERE SIDI YAHIA ALLER","lat":36.8163311525451,"long":10.159354537790932},{"name":"RESTAURANT BOU FERES ALLER","lat":36.81878605213538,"long":10.15775339308675},{"name":"MARCHE ZAYATINE RETOUR","lat":36.81953572613368,"long":10.157018534855524},{"name":"MARCHE ZAYATINE RETOUR","lat":36.81953572613368,"long":10.157018534855524},{"name":"TERMINUS L12 ZAYATINE","lat":36.825206238889756,"long":10.15385574180982},{"name":"CITE ZAYATINE ALLER","lat":36.82378672217296,"long":10.154958531293232},{"name":"CITE ZAYATINE RETOUR","lat":36.82370543794423,"long":10.154922388510386},{"name":"ECOLE FRANCAISE OMARANE ALLER","lat":36.81797225825793,"long":10.165542528065998},{"name":"ECOLE FRANCAISE OMARANE RETOUR","lat":36.81801949718922,"long":10.165660545262654},{"name":"ARBI KEBBEDI OMRANE ALLER","lat":36.81490993228062,"long":10.168447226351418},{"name":"CENTRE FORMATION EL OMRANE ALLER","lat":36.81732747973552,"long":10.160641998445499},{"name":"GARE ROUTIERE NORD ALLER","lat":36.81057195547933,"long":10.153003067171085},{"name":"GARE ROUTIERE NORD RETOUR","lat":36.810785463622075,"long":10.152398429827372},{"name":"FOYER BARDO 1 ALLER","lat":36.81415378893443,"long":10.146217078035988},{"name":"FOYER BARDO 1 RETOUR","lat":36.81394104170151,"long":10.146198503689448},{"name":"FOYER BARDO 2 RETOUR","lat":36.818323793956935,"long":10.141458839570987},{"name":"FOYER BARDO 2 RETOUR","lat":36.818323793956935,"long":10.141458839570987},{"name":"FOYER BARDO 2 ALLER","lat":36.818640042195824,"long":10.14139996472295},{"name":"RESIDENCE YESMINE ALLER","lat":36.82625397838049,"long":10.134232700656867},{"name":"CITE INB KHALDOUN ALLER","lat":36.8290508142273,"long":10.1348874274845},{"name":"CITE IBN KHALDOUN RETOUR","lat":36.8291448311543,"long":10.135035149769465},{"name":"MOSQUÉE IBN KHALDOUN ALLER","lat":36.82917075499943,"long":10.137735932967189},{"name":" MOSQUEE IBN KHALDOUN RETOUR","lat":36.82935385058692,"long":10.137894317540486},{"name":"CITEE IBN KHALDOUN 5 ALLER","lat":36.831423582554926,"long":10.13965116444524},{"name":"CITÉE IBN KHALDOUN RETOUR","lat":36.831481860515964,"long":10.139507096268972},{"name":"STADE IBN KHALDOUN ALLER","lat":36.83302221581164,"long":10.136003226107277},{"name":"STADE IBN KHALDOUN RETOUR","lat":36.83293205005243,"long":10.136255353754677},{"name":"FOYER OMRANE SUPÉRIEUR ALLER","lat":36.83757208536091,"long":10.132998884510016},{"name":"FOYER OMRANE SUPERIEUR RETOUR","lat":36.83752054719748,"long":10.132960461096445},{"name":"CAFÉ KAMEL BOU ALI ALLER ","lat":36.83879750481914,"long":10.132363602551777},{"name":"CAFE KAMEL BOU ALI RETOUR","lat":36.838861286833435,"long":10.132277201869329},{"name":"KERCH EL GHABA ALLER","lat":36.841236049478695,"long":10.131127104195912},{"name":"KERCH EL GHABA RETOUR","lat":36.84131163559446,"long":10.131029974677404},{"name":"LYCÉE OMRANE SUPERIEUR ALLER","lat":36.84296616693222,"long":10.130207106503804},{"name":"LYCÉE OMRANE SUPÉRIEURE RETOUR","lat":36.84306061390467,"long":10.130059585007984},{"name":"OMRANE SUPERIEUR ALLER","lat":36.84104285775547,"long":10.128265187177021},{"name":"OMRANE SUPÉRIEUR RETOUR","lat":36.841032124867645,"long":10.128380522164662},{"name":"TERMINUS OMRANE SUPÉRIEUR L 78 + 38 B","lat":36.83685938599631,"long":10.129029214513139},{"name":"SECTION MANOUBA","lat":36.8227111082623,"long":10.073860064148903},{"name":"bejawa 2","lat":36.83640215644911,"long":10.005346722900867},{"name":"coopérative central","lat":36.83541868967646,"long":10.006397143006325},{"name":"jabbes","lat":36.911459935207155,"long":10.103505346924067},{"name":"cimetière jabbes","lat":36.90416426289144,"long":10.091441022232175},{"name":"SONED 44c","lat":36.895833388060986,"long":10.08781467564404},{"name":"jabbes","lat":36.88986451800139,"long":10.082283709198236},{"name":"dispensaire jabbes ","lat":36.889548166461516,"long":10.080717550590634},{"name":"café jabbes","lat":36.88772042128158,"long":10.07607732899487},{"name":"Machta sebbala ","lat":36.918156554477065,"long":10.090769715607166},{"name":"makfoufine 1","lat":36.92057541166988,"long":10.084890313446522},{"name":"makfoufine 2","lat":36.92093110372451,"long":10.081241503357887},{"name":"SANAD","lat":36.919445468593246,"long":10.07596442475915},{"name":"mrezgeya ","lat":36.91374979667916,"long":10.060300324112177},{"name":"sidi thabet 1","lat":36.91283822988171,"long":10.055557675659657},{"name":"sidi thabet 2","lat":36.91154632229657,"long":10.049684392288327},{"name":"sidi thabet centre ","lat":36.90775974158247,"long":10.041567273437977},{"name":"I.N.P.F.C.A","lat":36.903678396134836,"long":10.036643240600824},{"name":"mbarka 1","lat":36.8988481131083,"long":10.02853224053979},{"name":"cité monji slim ","lat":36.90188644667605,"long":10.024729119613767},{"name":"cité monji slim terminus 44B 44D/","lat":36.905125129188335,"long":10.026322351768613},{"name":"mbarka 2","lat":36.8963513460707,"long":10.024208519607782},{"name":"chorfech 1","lat":36.93599596643216,"long":10.04274744540453},{"name":"chorfech 2","lat":36.93743893766601,"long":10.042587015777826},{"name":"SONED","lat":36.94764079145897,"long":10.041352696716785},{"name":"chorfech 3","lat":36.95377346547318,"long":10.043831560760736},{"name":"canal chorfech","lat":36.965947055535125,"long":10.058025810867548},{"name":"terminus bech hamba ","lat":36.962183737995424,"long":10.00903794541955},{"name":"hadj hmeydi","lat":36.97407942400131,"long":10.01575369387865},{"name":"dar ammar","lat":36.9873981356527,"long":10.022705979645252},{"name":"ferme bzazeya ","lat":37.00203403005814,"long":10.054377503693104},{"name":"AVENUE MADRID","lat":36.80887410508436,"long":10.175434514749213},{"name":"terminus 31","lat":36.99295347154482,"long":10.061920378357172},{"name":"réservoir d'eau","lat":37.045987027287936,"long":10.095802042633295},{"name":"ejjbal","lat":37.04847661594809,"long":10.098022408783436},{"name":"el fajja","lat":37.051399941996884,"long":10.101499306038022},{"name":"ejjbal 2","lat":37.05521449941702,"long":10.10428343899548},{"name":"ejjbal 3","lat":37.05640035530088,"long":10.10630582459271},{"name":"MUNICIPALE ","lat":37.05840014073707,"long":10.109900110401213},{"name":"Ben nicha","lat":37.05976089313584,"long":10.112002836540341},{"name":"KAMBOUZA","lat":37.060972362630345,"long":10.115505801513791},{"name":"errmila","lat":37.06238129364057,"long":10.118155949749053},{"name":"route lycée ","lat":37.06132224843618,"long":10.11865446344018},{"name":"ECOLE PRIMAIRE ","lat":37.0581213117419,"long":10.120076285675168},{"name":"lycée kalaate al andalouss","lat":37.053150980377254,"long":10.122238146141171},{"name":"terminus 44","lat":37.053108168184764,"long":10.121905552223325},{"name":"SNT SIJOUMI ENTREE PRINCIPALE","lat":36.780558212631604,"long":10.118107527559914},{"name":"BORJ YOUSSEF 1","lat":36.938569685982095,"long":10.090083070099354},{"name":"guichet geant ","lat":36.90041934260395,"long":10.121567593887448},{"name":"  TEBOURBA ","lat":36.82616996152958,"long":9.843146377243102},{"name":"terminus TEBOURBA ","lat":36.82758911193894,"long":9.843806200660765},{"name":"STEG tebourba","lat":36.83104291427512,"long":9.842161880806088},{"name":"garde nationale tebourba","lat":36.83314251265613,"long":9.844806538894773},{"name":"transformateur","lat":36.838336449767716,"long":9.860068056732416},{"name":"parc mayana","lat":36.84411186968288,"long":9.869611607864499},{"name":"dhniba","lat":36.850070297267074,"long":9.877717243507504},{"name":"hammed nouvelle ","lat":36.85346456623675,"long":9.881289694458246},{"name":"section hammed ","lat":36.85894154563775,"long":9.890430662781},{"name":"E.P TEBOURBA ","lat":36.830579761788925,"long":9.84016912523657},{"name":"lycée technique tebourba","lat":36.84461870825336,"long":9.829013692215085},{"name":"HÔPITAL TEBOURBA","lat":36.84592663943494,"long":9.828096125274897},{"name":"bir zitoun","lat":36.83375649474888,"long":9.840547190979123},{"name":"bir zitoun 2","lat":36.83961269163547,"long":9.846340762451291},{"name":"cité elbrag ","lat":36.850138979604054,"long":9.850288974121213},{"name":"cité bousabaa","lat":36.86763808639714,"long":9.857128607109189},{"name":"gomeryen","lat":36.87889428477931,"long":9.864306198433042},{"name":"gomeryen 2","lat":36.88584972597394,"long":9.86683283932507},{"name":"sidi salem","lat":36.89558513296613,"long":9.87001406494528},{"name":"canal","lat":36.90518089337869,"long":9.879208551719785},{"name":"frigo","lat":36.92385960317824,"long":9.8888108599931},{"name":"canal 3","lat":36.93843110690485,"long":9.911572211422026},{"name":"route chaouat ","lat":36.944564823759386,"long":9.91566488519311},{"name":"manzel shal","lat":36.95693392345833,"long":9.922681795433164},{"name":"Maafrine","lat":36.95777724825349,"long":9.923089239746332},{"name":"terminus sidi othman","lat":36.96668426679328,"long":9.920181725174189},{"name":"terminus edkhila","lat":36.86215586233002,"long":9.709349744953215},{"name":"lycée edkhila ","lat":36.86920724249367,"long":9.71098052803427},{"name":"edkhila ","lat":36.86585702617587,"long":9.710197197273374},{"name":"CROISEMENT MATEUR","lat":36.888767304156474,"long":9.737212406471372},{"name":"BAOUALA","lat":36.88327959047574,"long":9.787847148254514},{"name":"ENTRE CHOUIGUI","lat":36.87682054982553,"long":9.799214098602533},{"name":"TERMINUS CHOUIGUI","lat":36.879306222449905,"long":9.804364191368222},{"name":"route chouigui ","lat":36.86343958626712,"long":9.79831287637353},{"name":"frigo","lat":36.86075053124534,"long":9.800147004425526},{"name":"café jallou terminus","lat":36.90464469755247,"long":9.944552527740598},{"name":"jallou","lat":36.90112715949357,"long":9.945196257904172},{"name":"SECTION jallou","lat":36.8931526126233,"long":9.943871372379363},{"name":"cité essalem ","lat":36.88826846786602,"long":9.944332335144281},{"name":"route chaouat  ","lat":36.87870004842384,"long":9.94210073724389},{"name":"lycée chaouat","lat":36.86660378900999,"long":9.939477788284421},{"name":"cité essalem ","lat":36.8552931312144,"long":9.936768505722284},{"name":"brimo","lat":36.85207349557085,"long":9.93606882635504},{"name":"ejedayda gare aller","lat":36.84953257414274,"long":9.934676382690668},{"name":"ejedayda gare retour ","lat":36.85028808176968,"long":9.93288466706872},{"name":"cité RTT","lat":36.8429956860781,"long":9.931356059387326},{"name":"stade ejdaida","lat":36.83995071607184,"long":9.934976790100336},{"name":"sidi taleb 16D","lat":36.836044930042156,"long":9.941355334594846},{"name":"el hbibia 1","lat":36.83324126535326,"long":9.949300037696958},{"name":"el hbibia 2","lat":36.82733620693236,"long":9.94735786691308},{"name":"rond point el hbibia","lat":36.813183264765726,"long":9.942830549553037},{"name":"el hbibia","lat":36.80628993154784,"long":9.941870318725705},{"name":"café el hbibia","lat":36.8017240988067,"long":9.942868100479245},{"name":"terminus 16","lat":36.79759242045686,"long":9.944093995727599},{"name":"lycée souasi","lat":36.82297889040679,"long":9.935395466163754},{"name":"cité omda ","lat":36.81770818715678,"long":9.91984682623297},{"name":"zehra","lat":36.81644989873283,"long":9.917322867549956},{"name":"ben sassi","lat":36.8151400543386,"long":9.916169517673552},{"name":"el attar ","lat":36.8127494969874,"long":9.917982565239072},{"name":"mansoura 4","lat":36.81108741354073,"long":9.918948160484433},{"name":"mansoura 3","lat":36.80875957709974,"long":9.918932067230344},{"name":"MOSQUÉE EL MANSOURA","lat":36.79915972529497,"long":9.909147368744016},{"name":"MANSOURA 1","lat":36.79687448258157,"long":9.905467377975583},{"name":"TAYARI","lat":36.797200950000715,"long":9.903257237747312},{"name":"ELHATHERMINE","lat":36.79602709714805,"long":9.901266787201166},{"name":"ELHATHERMNIE 1","lat":36.78526136513444,"long":9.884883854538202},{"name":"ELHATHERMNIE 2","lat":36.790598305537365,"long":9.879026161506772},{"name":"ECOLE EL HATHERMINE","lat":36.79492424033185,"long":9.872529851272702},{"name":"EL BLAKAT ","lat":36.80346799555999,"long":9.87007294781506},{"name":"LYCEE BATTAN","lat":36.80075220007457,"long":9.846195671707392},{"name":"cité akacha","lat":36.792183507615974,"long":9.84737073071301},{"name":"kantaret rached","lat":36.78600847861434,"long":9.847413771785796},{"name":"cité ennour","lat":36.77815182610024,"long":9.853266226127744},{"name":"el mehrine","lat":36.769239987894174,"long":9.856559978798032},{"name":"mahfoura","lat":36.76668312176687,"long":9.844919191673398},{"name":"mahfoura 1","lat":36.76477078801146,"long":9.832666860893369},{"name":"siclou","lat":36.76090300095199,"long":9.809460388496518},{"name":"elhmemma","lat":36.76122532399052,"long":9.786339746788144},{"name":"terminus el mahfoura ","lat":36.75597001361058,"long":9.717213101685047},{"name":"CITÉE JLASS ALLER","lat":36.78676547047582,"long":10.106112421344733},{"name":"CITÉE JLASS RETOUR","lat":36.786589970612084,"long":10.106075137919106},{"name":"LYCÉE AGBA 2 ALLER","lat":36.78502613429386,"long":10.101375907725014},{"name":"LYCÉE AGBA 2 RETOUR","lat":36.785099171315885,"long":10.101847976511635},{"name":"CITÉE HWASS ALLER","lat":36.78695575618275,"long":10.099589690598805},{"name":"CITÉE HWASS ALLER","lat":36.78695575618275,"long":10.099589690598805},{"name":"CITÉE HWASS RETOUR","lat":36.78687781599572,"long":10.099509090250649},{"name":"LYCEE HRAIRIA ALLER","lat":36.79069152395085,"long":10.097110927235917},{"name":"LYCEE HRAIRIA RETOUR","lat":36.7905810455555,"long":10.097068280047097},{"name":"CITE EL MECHTEL","lat":36.792590323496114,"long":10.095984399449662},{"name":"JEANS JAURES","lat":36.80161770353746,"long":10.183898996529024},{"name":"STEG JEANS JAURES ALLER","lat":36.80549955212283,"long":10.181997745967237},{"name":"PASSAGE JEANS JAURES ALLER","lat":36.80691142631623,"long":10.181536138188676},{"name":"LA FAYETTE ALLER","lat":36.81056182673835,"long":10.180723831008436},{"name":"PLACE JEANS DARK ALLER","lat":36.81835661053425,"long":10.179578527840931},{"name":"PLACE PASTEUR ALLER","lat":36.82309354022186,"long":10.17767375720723},{"name":"cité elmherine","lat":36.76358065847816,"long":9.85959087498486},{"name":"el kalatous","lat":36.759291365440944,"long":9.861484514549375},{"name":"doken ben cherche","lat":36.74946667382929,"long":9.865735941566527},{"name":"raisin","lat":36.74067559581715,"long":9.870866881683469},{"name":"cité aouine 7","lat":36.733130861433274,"long":9.880597935989499},{"name":"cité aouine 6","lat":36.729518302094995,"long":9.884508345276117},{"name":"cité aouine 5","lat":36.72813388040227,"long":9.88593528047204},{"name":"cité aouine 4","lat":36.71862283064213,"long":9.893305990844965},{"name":"bortal 3A","lat":36.81672203085618,"long":10.117555009201169},{"name":"etathamen","lat":36.82707997999681,"long":10.11454020626843},{"name":"cité sfar","lat":36.82496592407573,"long":10.108955595642328},{"name":"terminus 18 janvier","lat":36.827894415038635,"long":10.106305573135614},{"name":"mess des oficiers","lat":36.82357148339225,"long":10.108258472755551},{"name":"café la paix","lat":36.81987931009203,"long":10.104545541107655},{"name":"MOEZEYA","lat":36.83009285659015,"long":10.049313995987177},{"name":"OUED ELLIL (16c 58)","lat":36.83538645509788,"long":10.040642791427672},{"name":"cité elward","lat":36.83763234421871,"long":10.042125675827265},{"name":"aggors","lat":36.8383536229928,"long":10.03875682130456},{"name":"lycée ibn fourat ","lat":36.83903739596649,"long":10.035597430542111},{"name":"chebbaou2","lat":36.84124725635499,"long":10.042780134826899},{"name":"section 16c","lat":36.84410757670021,"long":10.037834392860532},{"name":"lycée chabbaou","lat":36.84531389534399,"long":10.032201753929257},{"name":"cité elward 16c","lat":36.84712863656735,"long":10.026622507721186},{"name":"cité elward 1","lat":36.84376913462964,"long":10.026641660369933},{"name":"cité najet ","lat":36.84078359546728,"long":10.026708338409662},{"name":"sabbela (56)","lat":36.828581971541276,"long":10.076264832168818},{"name":"mosquée avenue chebbi","lat":36.82552529007495,"long":10.081017958000302},{"name":"baigneur","lat":36.822103445304776,"long":10.089359753765166},{"name":"café hammem ","lat":36.82059129536694,"long":10.092717753723264},{"name":"usine","lat":36.8218452214741,"long":10.095517979934812},{"name":"MOSQUÉE DAOUAR HICHER","lat":36.82425911228828,"long":10.096303992904723},{"name":"TAXIPHONE DAOUAR HICHER ","lat":36.827376563099676,"long":10.096486383117735},{"name":"terminus hôpital daouar hicher ","lat":36.83263586637906,"long":10.09581838734448},{"name":"terminus 56 72","lat":36.83262667533379,"long":10.088613722473383},{"name":"affaire sociale ","lat":36.83163115112508,"long":10.083131538704038},{"name":"terminus cité elbasatine","lat":36.845017683632,"long":10.090346680954099},{"name":"usine lazreg ","lat":36.84721834960221,"long":10.096054547466338},{"name":"café sirine ","lat":36.84952569915004,"long":10.101491385139525},{"name":"route elbasatine","lat":36.852761740177286,"long":10.108344303444028},{"name":"bir mnihla","lat":36.856796580732514,"long":10.11579011566937},{"name":"x20","lat":36.853760309272054,"long":10.119569473899901},{"name":"cité dridi","lat":36.85589519865907,"long":10.128932939842343},{"name":"cité elamen ","lat":36.85389495094842,"long":10.138830291107297},{"name":"nahli 3","lat":36.892959250475336,"long":10.130086289718747},{"name":"nahli 2","lat":36.892349766025724,"long":10.138454781845212},{"name":"NAHLI","lat":36.89321096640118,"long":10.14688203111291},{"name":"carrière nahli","lat":36.89080122997169,"long":10.159805165603757},{"name":"cité populaire ennahli","lat":36.887480720893535,"long":10.16690778080374},{"name":"usine de carrelage ","lat":36.88492723320255,"long":10.170743213966489},{"name":"marbrerie ","lat":36.8801858735787,"long":10.177888618782163},{"name":"CROISEMENT riadh andalos","lat":36.87817426013248,"long":10.178424306213856},{"name":"touben 2","lat":36.871603478574094,"long":10.182153331115842},{"name":"touben hopital matri ","lat":36.8682432082516,"long":10.183794843032956},{"name":"cité ellil ","lat":36.86652968975538,"long":10.18455097451806},{"name":"magro ","lat":36.8619428395262,"long":10.187228070572019},{"name":"place sala centre ","lat":36.858110004152024,"long":10.1914391387254},{"name":"la poste ","lat":36.855749863217994,"long":10.187843218445778},{"name":"lycée les abattoires","lat":36.85313089401584,"long":10.18521641381085},{"name":"les abattoirs nouvelle ","lat":36.851412744066145,"long":10.18357465043664},{"name":"GORJANI RETOUR","lat":36.78801093773743,"long":10.167116615921259},{"name":"ennaser 2 X20","lat":36.85502412082326,"long":10.151656614616513},{"name":"CENTRE IKRAM ","lat":36.855516333333355,"long":10.161462519317865},{"name":"CITE ENNASR 1 ","lat":36.85854780694273,"long":10.168275581672788},{"name":"EL MENZAH 6","lat":36.84221750059782,"long":10.172223541885614},{"name":"EL MENZAH 6","lat":36.84221750059782,"long":10.172223541885614},{"name":"CLINIQUE TAOUFIK  RETOUR","lat":36.831695556344876,"long":10.152933346107602},{"name":"TERMINUS RABTA L ( 43B + 43 )","lat":36.80201487183864,"long":10.156948797421137},{"name":"INSTITUT DE NUTRITION","lat":36.805689146921225,"long":10.157520040902455},{"name":"STADE ZOUITEN ALLER","lat":36.82784395287039,"long":10.169841975039162},{"name":"STADE ZOUITEN RETOUR","lat":36.8277065480853,"long":10.169976085489907},{"name":"MUTUELLE VILLE ALLER","lat":36.829294059298626,"long":10.165764749017399},{"name":"MUTUELLE VILLE RETOUR","lat":36.82906219297533,"long":10.165818393361405},{"name":"TERMINUS MINISTÈRE DES AFFAIRES ETRANGERES ( L 36 B )","lat":36.82956240426944,"long":10.159038238243738},{"name":"TAHA HUSSEIN ALLER","lat":36.7843759942703,"long":10.175823435220082},